Municipality,Latitude,Longitude
Aeugst am Albis,47.267949,8.4863301
Affoltern am Albis,47.278247,8.4521518
Bonstetten,47.315466,8.4670602
Hausen am Albis,47.243877,8.534235
Hedingen,47.298441,8.4489755
Kappel am Albis,47.228848,8.5251335
Knonau,47.225146,8.4573072
Maschwanden,47.234984,8.4266177
Mettmenstetten,47.243488,8.4636702
Obfelden,47.26177,8.4197059
Ottenbach,47.28172,8.4060915
Rifferswil,47.241563,8.4971398
Stallikon,47.326923,8.4901051
Wettswil am Albis,47.339083,8.4734523
Adlikon,47.582503,8.6912556
Benken (ZH),47.653787,8.6537634
Berg am Irchel,47.56797,8.5959486
Buch am Irchel,47.548981,8.6199637
Dachsen,47.66619,8.6150532
Dorf,47.572003,8.647344
Feuerthalen,47.691477,8.64598
Flaach,47.575446,8.6060755
Flurlingen,47.686076,8.6272354
Andelfingen,47.595333,8.6794336
Henggart,47.563229,8.6835729
Humlikon,47.576235,8.6695684
Kleinandelfingen,47.599804,8.6860581
Laufen-Uhwiesen,47.670994,8.6350982
Marthalen,47.625775,8.6501583
Oberstammheim,47.631775,8.7986032
Ossingen,47.612854,8.7283378
Rheinau,47.643925,8.6017575
Thalheim an der Thur,47.578616,8.7538871
Trüllikon,47.637726,8.6934163
Truttikon,47.629606,8.7276879
Unterstammheim,47.638955,8.7907193
Volken,47.574646,8.6251185
Waltalingen,47.62196,8.7790569
Bachenbülach,47.504704,8.5473259
Bassersdorf,47.443571,8.6299131
Bülach,47.517232,8.5407118
Dietlikon,47.422281,8.6155979
Eglisau,47.573321,8.5239827
Embrach,47.505638,8.5941089
Freienstein-Teufen,47.531137,8.585086
Glattfelden,47.559752,8.5008282
Hochfelden,47.522561,8.5160674
Höri,47.506654,8.5062644
Hüntwangen,47.595424,8.4925331
Kloten,47.452513,8.5861477
Lufingen,47.489933,8.5943645
Nürensdorf,47.449261,8.6470753
Oberembrach,47.487636,8.618543
Opfikon,47.432267,8.5779983
Rafz,47.611593,8.5402669
Rorbas,47.530324,8.5771089
Wallisellen,47.41662,8.5919985
Wasterkingen,47.590058,8.4707137
Wil (ZH),47.605521,8.5049057
Winkel,47.493335,8.5538578
Bachs,47.525378,8.4397426
Boppelsen,47.470853,8.4026165
Buchs (ZH),47.458087,8.4378662
Dällikon,47.439942,8.4388272
Dänikon,47.445933,8.4057151
Dielsdorf,47.481037,8.4543245
Hüttikon,47.444983,8.3867932
Neerach,47.511229,8.4716
Niederglatt,47.491843,8.5030113
Niederhasli,47.481295,8.4858049
Niederweningen,47.507602,8.380001
Oberglatt,47.476804,8.5203554
Oberweningen,47.501261,8.4056983
Otelfingen,47.460873,8.3892173
Regensberg,47.482764,8.4374038
Regensdorf,47.431764,8.4680435
Rümlang,47.450716,8.5299122
Schleinikon,47.497191,8.3971872
Schöfflisdorf,47.499856,8.4162027
Stadel,47.528098,8.467585
Steinmaur,47.498999,8.4555136
Weiach,47.556584,8.4375683
Bäretswil,47.336025,8.8580536
Bubikon,47.268292,8.8191613
Dürnten,47.277854,8.842203
Fischenthal,47.333314,8.9225988
Gossau (ZH),47.305885,8.7602403
Grüningen,47.28194,8.7613283
Hinwil,47.301532,8.8419423
Rüti (ZH),47.257931,8.852696
Seegräben,47.342142,8.7709578
Wald (ZH),47.274142,8.9132553
Wetzikon (ZH),47.322693,8.7980939
Adliswil,47.311762,8.52491
Hirzel,47.215904,8.6101778
Horgen,47.260692,8.5976831
Hütten,47.176306,8.667935
Kilchberg (ZH),47.322532,8.5459483
Langnau am Albis,47.287663,8.5372813
Oberrieden,47.27791,8.5762195
Richterswil,47.209108,8.7017051
Rüschlikon,47.307465,8.5546421
Schönenberg (ZH),47.193746,8.6415425
Thalwil,47.294432,8.5635762
Wädenswil,47.227899,8.6701365
Erlenbach (ZH),47.303754,8.5920709
Herrliberg,47.290557,8.6124721
Hombrechtikon,47.252335,8.7680277
Küsnacht (ZH),47.317628,8.5830859
Männedorf,47.253174,8.6918153
Meilen,47.270428,8.6412249
Oetwil am See,47.270346,8.721657
Stäfa,47.241335,8.7348747
Uetikon am See,47.269368,8.68316
Zumikon,47.332406,8.6238228
Zollikon,47.337953,8.5755735
Bauma,47.367763,8.8792873
Fehraltorf,47.387371,8.7520123
Hittnau,47.36828,8.8233708
Illnau-Effretikon,47.431422,8.7157166
Kyburg,47.457086,8.744344
Lindau,47.442668,8.6722839
Pfäffikon,47.365582,8.7819841
Russikon,47.394837,8.776585
Sternenberg,47.387085,8.9113948
Weisslingen,47.43185,8.7640975
Wila,47.419979,8.8453407
Wildberg,47.426927,8.8166167
Dübendorf,47.396994,8.6185666
Egg,47.299067,8.6884584
Fällanden,47.371324,8.6388635
Greifensee,47.366248,8.6786693
Maur,47.340286,8.6692369
Mönchaltorf,47.31279,8.7222749
Schwerzenbach,47.381502,8.6523009
Uster,47.351207,8.7179221
Volketswil,47.389862,8.690503
Wangen-Brüttisellen,47.410778,8.6456746
Altikon,47.573393,8.7808347
Bertschikon,47.526283,8.8138602
Brütten,47.473149,8.6753241
Dägerlen,47.56055,8.7217683
Dättlikon,47.525665,8.6224807
Dinhard,47.555198,8.7681536
Elgg,47.490233,8.8669115
Ellikon an der Thur,47.563351,8.8242689
Elsau,47.50483,8.8016078
Hagenbuch,47.520505,8.8882927
Hettlingen,47.546774,8.7095144
Hofstetten (ZH),47.472833,8.8539141
Neftenbach,47.528176,8.6680365
Pfungen,47.516112,8.6454232
Rickenbach (ZH),47.538786,8.7894902
Schlatt (ZH),47.467555,8.806785
Seuzach,47.534596,8.7338342
Turbenthal,47.436815,8.848521
Wiesendangen,47.521305,8.7889904
Winterthur,47.499172,8.7291498
Zell (ZH),47.448026,8.8227739
Aesch (ZH),47.337313,8.4398911
Birmensdorf (ZH),47.353848,8.4382157
Dietikon,47.405075,8.4030765
Geroldswil,47.422405,8.4117744
Oberengstringen,47.409141,8.4626927
Oetwil an der Limmat,47.427825,8.3964479
Schlieren,47.396515,8.4444861
Uitikon,47.370576,8.4530961
Unterengstringen,47.413093,8.4490943
Urdorf,47.384708,8.4259004
Weiningen (ZH),47.419971,8.4366271
Zürich,47.374449,8.5410422
Aarberg,47.044335,7.2753004
Bargen (BE),47.03836,7.2630166
Grossaffoltern,47.066783,7.3608919
Kallnach,47.020581,7.2363159
Kappelen,47.0607,7.267294
Lyss,47.072137,7.305262
Meikirch,47.008865,7.3634614
Niederried bei Kallnach,47.00632,7.23145
Radelfingen,47.021938,7.2730856
Rapperswil (BE),47.062819,7.4103359
Schüpfen,47.039427,7.3778982
Seedorf (BE),47.034983,7.3116209
Aarwangen,47.239082,7.7701468
Auswil,47.132304,7.83405
Bannwil,47.238456,7.7365599
Bleienbach,47.185655,7.7561202
Busswil bei Melchnau,47.186147,7.8307883
Gondiswil,47.144579,7.8718925
Gutenburg,47.182647,7.7949969
Kleindietwil,47.144535,7.7899976
Langenthal,47.211602,7.788786
Leimiswil,47.15005,7.7638263
Lotzwil,47.19035,7.7896055
Madiswil,47.165076,7.7980706
Melchnau,47.182438,7.8518093
Obersteckholz,47.198803,7.8167121
Oeschenbach,47.115026,7.7527439
Reisiswil,47.16435,7.8452952
Roggwil (BE),47.241147,7.8230774
Rohrbach,47.135699,7.815146
Rohrbachgraben,47.118375,7.7983862
Rütschelen,47.173221,7.7738699
Schwarzhäusern,47.252407,7.7669632
Thunstetten,47.202355,7.7582873
Untersteckholz,47.206244,7.843896
Ursenbach,47.136902,7.7711734
Wynau,47.258598,7.8127574
Bern,46.948474,7.4521749
Bolligen,46.975561,7.4983298
Bremgarten bei Bern,46.976775,7.4374969
Kirchlindach,46.999707,7.4142199
Köniz,46.922238,7.4130582
Muri bei Bern,46.929048,7.4870909
Oberbalm,46.873078,7.4026366
Stettlen,46.958356,7.5251524
Vechigen,46.94941,7.562916
Wohlen bei Bern,46.970843,7.35592
Zollikofen,46.995946,7.4576417
Ittigen,46.979073,7.4815213
Ostermundigen,46.958278,7.4911242
Biel,47.140208,7.2439029
Evilard,47.14947,7.2395711
Arch,47.167113,7.4290584
Büetigen,47.105594,7.3410348
Büren an der Aare,47.13991,7.3722632
Busswil bei Büren,47.099363,7.3221402
Diessbach bei Büren,47.108005,7.3635007
Dotzigen,47.119738,7.341198
Lengnau (BE),47.182097,7.3661348
Leuzigen,47.174661,7.4585386
Meienried,47.140076,7.3379717
Meinisberg,47.159373,7.3463905
Oberwil bei Büren,47.130105,7.4065122
Pieterlen,47.175022,7.3361682
Rüti bei Büren,47.151222,7.4064259
Wengi,47.083786,7.4000603
Aefligen,47.094681,7.5572205
Alchenstorf,47.1243,7.6388514
Bäriswil,47.018601,7.52538
Burgdorf,47.057132,7.6237466
Ersigen,47.093306,7.59669
Hasle bei Burgdorf,47.017307,7.649334
Heimiswil,47.062599,7.6572587
Hellsau,47.146259,7.6487623
Hindelbank,47.041871,7.5383058
Höchstetten,47.143155,7.6322713
Kernenried,47.071751,7.5487983
Kirchberg (BE),47.085166,7.5815694
Koppigen,47.13183,7.601523
Krauchthal,47.00804,7.5669873
Lyssach,47.065088,7.5819291
Mötschwil,47.049515,7.5686179
Niederösch,47.117533,7.6141807
Oberburg,47.039,7.6256482
Oberösch,47.107884,7.6103641
Rüdtligen-Alchenflüh,47.084432,7.569657
Rumendingen,47.105537,7.6430358
Rüti bei Lyssach,47.05554,7.5779172
Willadingen,47.145738,7.6151653
Wynigen,47.107537,7.6685431
Corgémont,47.194749,7.1447816
Cormoret,47.172079,7.0529541
Cortébert,47.190303,7.107598
Courtelary,47.178553,7.0703235
La Ferrière,47.142508,6.8930483
La Heutte,47.190665,7.2255703
Mont-Tramelan,47.20672,7.0523346
Orvin,47.160688,7.212695
Péry,47.191783,7.2462466
Plagne,47.188688,7.2881249
Renan (BE),47.126233,6.9267658
Romont (BE),47.189251,7.3408377
Saint-Imier,47.151775,6.9971967
Sonceboz-Sombeval,47.196789,7.1705782
Sonvilier,47.139085,6.9665391
Tramelan,47.223677,7.1030216
Vauffelin,47.187299,7.2990426
Villeret,47.158284,7.0177694
Brüttelen,47.022955,7.148366
Erlach,47.043303,7.0975115
Finsterhennen,47.023217,7.1808763
Gals,47.027061,7.0486252
Gampelen,47.014226,7.0574393
Ins,47.005898,7.1056472
Lüscherz,47.045922,7.1511459
Müntschemier,46.996163,7.1442384
Siselen,47.032511,7.1882602
Treiten,47.008843,7.1623892
Tschugg,47.026336,7.0764462
Vinelz,47.032831,7.1104574
Ballmoos,47.040573,7.4727205
Bangerten,47.055751,7.4488838
Bätterkinden,47.13178,7.5398908
Büren zum Hof,47.095502,7.515298
Deisswil bei Münchenbuchsee,47.034796,7.4564291
Diemerswil,47.019483,7.4282218
Etzelkofen,47.085039,7.4785267
Fraubrunnen,47.08619,7.5253953
Grafenried,47.080077,7.5098526
Jegenstorf,47.049814,7.5085719
Iffwil,47.064842,7.4782737
Limpach,47.108799,7.4945374
Mattstetten,47.030126,7.5138515
Moosseedorf,47.016365,7.4839011
Mülchi,47.100709,7.476074
Münchenbuchsee,47.02159,7.4505443
Münchringen,47.044852,7.5207405
Ruppoldsried,47.087483,7.4243087
Schalunen,47.109659,7.5254945
Scheunen,47.070767,7.4598426
Urtenen-Schönbühl,47.027138,7.5015562
Utzenstorf,47.12939,7.5577607
Wiggiswil,47.030354,7.4686887
Wiler bei Utzenstorf,47.151251,7.5583621
Zauggenried,47.073091,7.5398876
Zielebach,47.158294,7.5771527
Zuzwil (BE),47.05141,7.4715761
Adelboden,46.492721,7.5587618
Aeschi bei Spiez,46.658359,7.6965086
Frutigen,46.587421,7.6444369
Kandergrund,46.5423,7.6623658
Kandersteg,46.497587,7.6756638
Krattigen,46.660973,7.7256121
Reichenbach im Kandertal,46.623593,7.6908247
Beatenberg,46.693251,7.783279
Bönigen,46.688734,7.8949281
Brienz (BE),46.756,8.0303006
Brienzwiler,46.750119,8.1021125
Därligen,46.66065,7.8094165
Grindelwald,46.624273,8.0367462
Gsteigwiler,46.653638,7.874646
Gündlischwand,46.633009,7.9069325
Habkern,46.727605,7.8646663
Hofstetten bei Brienz,46.754344,8.0753291
Interlaken,46.685523,7.8585139
Iseltwald,46.71046,7.9634571
Lauterbrunnen,46.593904,7.9078016
Leissigen,46.654069,7.7738604
Lütschental,46.63763,7.9504605
Matten bei Interlaken,46.679882,7.8686253
Niederried bei Interlaken,46.719051,7.9306688
Oberried am Brienzersee,46.737475,7.9619532
Ringgenberg (BE),46.704414,7.8960911
Saxeten,46.637024,7.8327586
Schwanden bei Brienz,46.769607,8.0548227
Unterseen,46.687165,7.8496369
Wilderswil,46.663395,7.8629948
Aeschlen,46.83652,7.6426754
Arni (BE),46.934737,7.6654733
Biglen,46.926313,7.6278668
Bleiken bei Oberdiessbach,46.814734,7.6397756
Bowil,46.893057,7.6949602
Brenzikofen,46.815044,7.616377
Freimettigen,46.86771,7.6277729
Grosshöchstetten,46.907467,7.6380928
Häutligen,46.857215,7.6055227
Herbligen,46.827468,7.6081438
Kiesen,46.81954,7.5848154
Konolfingen,46.879415,7.6209846
Landiswil,46.958166,7.6782496
Linden,46.848498,7.6771267
Mirchel,46.895199,7.6481259
Münsingen,46.873978,7.5631943
Niederhünigen,46.877266,7.6387344
Oberdiessbach,46.839996,7.6192848
Oberthal,46.916546,7.6740252
Oppligen,46.819957,7.5955418
Rubigen,46.898862,7.5445171
Schlosswil,46.908454,7.6074321
Tägertschi,46.876308,7.5855767
Walkringen,46.947437,7.6204553
Worb,46.930862,7.5645522
Zäziwil,46.901015,7.6611309
Oberhünigen,46.880826,7.657949
Allmendingen,46.913701,7.523976
Trimstein,46.904732,7.5810475
Wichtrach,46.845731,7.5783419
Clavaleyres,46.899521,7.090773
Ferenbalm,46.948833,7.2109008
Frauenkappelen,46.953409,7.3356617
Golaten,46.986345,7.2442159
Gurbrü,46.964978,7.2164888
Kriechenwil,46.910791,7.222791
Laupen,46.903302,7.239642
Mühleberg,46.95337,7.2615937
Münchenwiler,46.912481,7.1255085
Neuenegg,46.895472,7.3034416
Wileroltigen,46.970768,7.2387144
Belprahon,47.282813,7.4059657
Bévilard,47.236625,7.2839509
Champoz,47.255362,7.2991767
Châtelat,47.272299,7.1944964
Corcelles (BE),47.285762,7.4556693
Court,47.239899,7.337079
Crémines,47.283312,7.4414188
Eschert,47.275488,7.3982726
Grandval,47.283476,7.4270688
Loveresse,47.242418,7.2356474
Malleray,47.2383,7.2719116
Monible,47.277107,7.2005408
Moutier,47.279614,7.3704192
Perrefitte,47.275345,7.3428312
Pontenet,47.241559,7.2546414
Reconvilier,47.235771,7.2247648
Roches (BE),47.301927,7.3820526
Saicourt,47.24361,7.2072535
Saules (BE),47.24494,7.218926
Schelten,47.331277,7.55302
Seehof,47.305026,7.5182356
Sornetan,47.275123,7.2171688
Sorvilier,47.238703,7.3048075
Souboz,47.27461,7.2438318
Tavannes,47.220131,7.1986691
Rebévelier,47.291301,7.1918312
Diesse,47.113748,7.1166912
Lamboing,47.117715,7.1361859
La Neuveville,47.063769,7.0927997
Nods,47.113012,7.0818275
Prêles,47.09917,7.1308569
Aegerten,47.120241,7.2884966
Bellmund,47.107138,7.2467743
Brügg,47.126553,7.277311
Bühl,47.071288,7.2443142
Epsach,47.06903,7.2198025
Hagneck,47.056933,7.1870499
Hermrigen,47.081879,7.2429219
Jens,47.098989,7.2636214
Ipsach,47.111879,7.2329528
Ligerz,47.084468,7.1358527
Merzligen,47.08865,7.2494027
Mörigen,47.084612,7.2137984
Nidau,47.125029,7.241157
Orpund,47.139887,7.3030953
Port,47.115029,7.2542221
Safnern,47.150066,7.322072
Scheuren,47.132962,7.3183002
Schwadernau,47.129019,7.3044152
Studen,47.111734,7.3014821
Sutz-Lattrigen,47.098806,7.2149985
Täuffelen,47.068313,7.1993363
Tüscherz-Alfermée,47.119085,7.203871
Twann,47.093989,7.1548139
Walperswil,47.059784,7.2268525
Worben,47.100636,7.29635
Därstetten,46.659917,7.492218
Diemtigen,46.649687,7.5665715
Erlenbach im Simmental,46.661483,7.5533928
Niederstocken,46.707297,7.585908
Oberstocken,46.717773,7.5539479
Oberwil im Simmental,46.657205,7.4358295
Reutigen,46.694273,7.623712
Spiez,46.691947,7.6774655
Wimmis,46.673432,7.6368102
Gadmen,46.703584,8.3801261
Guttannen,46.655228,8.2904509
Hasliberg,46.737906,8.2052569
Innertkirchen,46.70538,8.2286304
Meiringen,46.728552,8.1870934
Schattenhalb,46.71741,8.1921668
Boltigen,46.629543,7.3908364
Lenk,46.455888,7.4416976
St. Stephan,46.492481,7.3976313
Zweisimmen,46.553261,7.3738058
Gsteig,46.385582,7.2673253
Lauenen,46.424707,7.3223985
Saanen,46.489756,7.2615837
Albligen,46.851398,7.318044
Guggisberg,46.767518,7.3295779
Rüschegg,46.771293,7.4036704
Wahlern,46.827063,7.3530695
Belp,46.88978,7.498388
Belpberg,46.8668,7.5220542
Burgistein,46.791317,7.500478
Gelterfingen,46.841619,7.5168205
Gerzensee,46.838094,7.5431319
Gurzelen,46.779331,7.531651
Jaberg,46.818181,7.569789
Kaufdorf,46.837938,7.498229
Kehrsatz,46.910128,7.4709596
Kienersrüti,46.797149,7.5610807
Kirchdorf (BE),46.819865,7.5483898
Kirchenthurnen,46.823316,7.5018898
Lohnstorf,46.807071,7.5097537
Mühledorf (BE),46.828872,7.5385748
Mühlethurnen,46.814062,7.5096282
Niedermuhlern,46.861536,7.4654489
Noflen,46.894761,7.2507491
Riggisberg,46.81067,7.4798275
Rüeggisberg,46.821481,7.43971
Rümligen,46.830767,7.4960993
Rüti bei Riggisberg,46.782766,7.4505117
Seftigen,46.788781,7.5396362
Toffen,46.859652,7.491931
Uttigen,46.793716,7.579181
Wattenwil,46.769176,7.5076613
Wald (BE),46.88018,7.4605805
Eggiwil,46.875225,7.7974921
Langnau im Emmental,46.939234,7.7882673
Lauperswil,46.964491,7.7418169
Röthenbach im Emmental,46.853695,7.7435504
Rüderswil,46.982947,7.7226944
Schangnau,46.827731,7.8610673
Signau,46.918897,7.7255918
Trub,46.941763,7.878947
Trubschachen,46.922889,7.8466832
Amsoldingen,46.728073,7.5814651
Blumenstein,46.741215,7.5208259
Buchholterberg,46.819367,7.6855686
Eriz,46.78758,7.798843
Fahrni,46.796071,7.657959
Forst,46.763465,7.5225485
Heiligenschwendi,46.750388,7.68459
Heimberg,46.787108,7.605935
Hilterfingen,46.735718,7.6591147
Höfen,46.721176,7.5636418
Homberg,46.775266,7.682735
Horrenbach-Buchen,46.768658,7.8016021
Längenbühl,46.75763,7.5391144
Oberhofen am Thunersee,46.731374,7.6687101
Oberlangenegg,46.799803,7.734264
Pohlern,46.724441,7.5379448
Schwendibach,46.769152,7.658443
Sigriswil,46.716429,7.7160699
Steffisburg,46.777474,7.6354195
Teuffenthal (BE),46.768928,7.7106868
Thierachern,46.754284,7.5750016
Thun,46.758283,7.628086
Uebeschi,46.738839,7.5542435
Uetendorf,46.774144,7.569395
Unterlangenegg,46.796866,7.699143
Wachseldorn,46.81848,7.7241386
Zwieselberg,46.70914,7.6167522
Affoltern im Emmental,47.065353,7.7341485
Dürrenroth,47.090221,7.7895896
Eriswil,47.077638,7.8501785
Huttwil,47.114742,7.8455436
Lützelflüh,47.009346,7.6886004
Rüegsau,47.025217,7.6726703
Sumiswald,47.028565,7.7449828
Trachselwald,47.016783,7.7386149
Walterswil (BE),47.112656,7.7768008
Wyssachen,47.083372,7.8241528
Attiswil,47.249233,7.6133081
Berken,47.227062,7.709544
Bettenhausen,47.173394,7.7105281
Bollodingen,47.167811,7.7098894
Farnern,47.267401,7.6229041
Graben,47.219192,7.7217261
Heimenhausen,47.208293,7.6987725
Hermiswil,47.153096,7.6988492
Herzogenbuchsee,47.188131,7.7057052
Inkwil,47.200952,7.6720934
Niederbipp,47.268494,7.6933343
Niederönz,47.18472,7.6918687
Oberbipp,47.261348,7.6610534
Oberönz,47.179877,7.6944946
Ochlenberg,47.150182,7.7357217
Röthenbach bei Herzogenbuchsee,47.205379,7.6814195
Rumisberg,47.263451,7.6412018
Seeberg,47.154563,7.6625354
Thörigen,47.173331,7.7287365
Walliswil bei Niederbipp,47.235671,7.6917868
Walliswil bei Wangen,47.231104,7.6851028
Wangen an der Aare,47.235304,7.65517
Wangenried,47.216959,7.6586062
Wanzwil,47.200223,7.6931833
Wiedlisbach,47.252438,7.6471049
Wolfisberg,47.272972,7.6612053
Doppleschwand,47.018097,8.0553111
Entlebuch,46.992236,8.0645622
Escholzmatt,46.914079,7.9348793
Flühli,46.884007,8.01564
Hasle (LU),46.97961,8.0526728
Marbach (LU),46.854943,7.9012014
Romoos,47.011522,8.0282996
Schüpfheim,46.951717,8.017953
Werthenstein,47.032165,8.1222521
Aesch (LU),47.257052,8.2406691
Altwis,47.238495,8.251632
Ballwil,47.152172,8.3185717
Emmen,47.075243,8.2839456
Ermensee,47.228225,8.2409195
Eschenbach (LU),47.133023,8.317969
Gelfingen,47.214408,8.2661787
Hämikon,47.237859,8.2764763
Hitzkirch,47.225044,8.2632119
Hochdorf,47.166536,8.2899709
Hohenrain,47.179746,8.3156425
Inwil,47.122003,8.3508443
Lieli,47.20792,8.2992079
Mosen,47.24387,8.2263631
Müswangen,47.238277,8.2889322
Rain,47.129217,8.2564524
Retschwil,47.196079,8.244158
Römerswil,47.168923,8.2441972
Rothenburg,47.094004,8.2724174
Schongau,47.267748,8.2661717
Sulz (LU),47.2211,8.2843731
Adligenswil,47.070535,8.368244
Buchrain,47.094103,8.3472568
Dierikon,47.096957,8.3692841
Ebikon,47.081207,8.338521
Gisikon,47.126297,8.4006518
Greppen,47.054825,8.4306044
Honau,47.13076,8.4065981
Horw,47.018501,8.3107797
Kriens,47.034146,8.2807994
Littau,47.050527,8.2598581
Luzern,47.050545,8.3054682
Malters,47.0384,8.1830555
Meggen,47.047075,8.3733992
Meierskappel,47.123963,8.4435423
Root,47.115344,8.3911091
Schwarzenberg,47.014594,8.1734674
Udligenswil,47.091036,8.399689
Vitznau,47.009118,8.4846569
Weggis,47.032255,8.4346408
Beromünster,47.207637,8.1924386
Büron,47.214255,8.0946583
Buttisholz,47.11396,8.0935047
Eich,47.151525,8.1691162
Geuensee,47.20021,8.1095256
Grosswangen,47.132264,8.0491183
Gunzwil,47.21167,8.1800549
Hildisrieden,47.151361,8.2266792
Knutwil,47.199397,8.070364
Mauensee,47.168485,8.0670726
Neudorf,47.177123,8.2097504
Neuenkirch,47.10024,8.2029897
Nottwil,47.137855,8.1318599
Oberkirch,47.155665,8.1151451
Pfeffikon,47.249375,8.1773499
Rickenbach (LU),47.221267,8.1535369
Ruswil,47.083942,8.126227
Schenkon,47.177472,8.132378
Schlierbach,47.224135,8.1109581
Sempach,47.135374,8.1920262
Sursee,47.17253,8.1067781
Triengen,47.235197,8.0767478
Winikon,47.236092,8.0511128
Wolhusen,47.058014,8.0725617
Alberswil,47.150618,8.0013407
Altbüron,47.1816,7.88263
Altishofen,47.200914,7.961177
Buchs (LU),47.201153,8.0339752
Dagmersellen,47.213567,7.9901132
Ebersecken,47.182961,7.9316101
Egolzwil,47.185972,8.0056254
Ettiswil,47.148392,8.0150668
Fischbach,47.15154,7.9081489
Gettnau,47.140002,7.9684144
Grossdietwil,47.170687,7.887705
Hergiswil bei Willisau,47.084434,7.9575516
Kottwil,47.162331,8.0449827
Langnau bei Reiden,47.231871,7.9620803
Luthern,47.05896,7.9169068
Menznau,47.083811,8.040131
Nebikon,47.18965,7.973802
Ohmstal,47.164099,7.952664
Pfaffnau,47.227372,7.8984229
Reiden,47.246019,7.9730383
Richenthal,47.213879,7.9398223
Roggliswil,47.211165,7.8827159
Schötz,47.169844,7.9884821
Uffikon,47.212143,8.0187638
Ufhusen,47.116635,7.8955614
Wauwil,47.184353,8.026173
Wikon,47.262811,7.9675995
Willisau Land,47.00016,8.01427
Willisau Stadt,47.12183,7.99418
Zell (LU),47.138051,7.9227913
Altdorf (UR),46.882073,8.6413922
Andermatt,46.63405,8.5948148
Attinghausen,46.861718,8.6288119
Bauen,46.93532,8.579653
Bürglen (UR),46.875076,8.6633076
Erstfeld,46.821509,8.6499636
Flüelen,46.902724,8.6253481
Göschenen,46.667649,8.588703
Gurtnellen,46.729226,8.6230523
Hospental,46.618945,8.5685985
Isenthal,46.910246,8.562013
Realp,46.598846,8.5020509
Schattdorf,46.863697,8.6509309
Seedorf (UR),46.882161,8.6115834
Seelisberg,46.977964,8.5858121
Silenen,46.792137,8.6695021
Sisikon,46.949336,8.6211018
Spiringen,46.872721,8.7276236
Unterschächen,46.863112,8.7703521
Wassen,46.706849,8.5995804
Einsiedeln,47.12861,8.7500299
Gersau,46.9923,8.5264727
Feusisberg,47.186743,8.7486302
Freienbach,47.204411,8.7598816
Wollerau,47.195726,8.7194595
Küssnacht (SZ),47.08385,8.4386308
Altendorf,47.191637,8.8294983
Galgenen,47.18159,8.8742411
Innerthal,47.105514,8.9183482
Lachen,47.192383,8.8523833
Reichenburg,47.169179,8.9754615
Schübelbach,47.172673,8.9287461
Tuggen,47.202279,8.9424794
Vorderthal,47.122023,8.9008631
Wangen (SZ),47.192312,8.8953915
Alpthal,47.073494,8.7138911
Arth,47.064455,8.5238673
Illgau,46.988993,8.7259577
Ingenbohl,47.000758,8.6150227
Lauerz,47.032321,8.5848711
Morschach,46.98212,8.6191516
Muotathal,46.974668,8.7658029
Oberiberg,47.039177,8.7834161
Riemenstalden,46.946993,8.6645678
Rothenthurm,47.104726,8.6748441
Sattel,47.080985,8.6335265
Schwyz,47.057198,8.7222073
Steinen,47.050055,8.6108291
Steinerberg,47.056179,8.5864716
Unteriberg,47.059802,8.8035271
Alpnach,46.941166,8.2736829
Engelberg,46.82235,8.4043996
Giswil,46.838175,8.1880027
Kerns,46.900811,8.2753475
Lungern,46.78573,8.1607283
Sachseln,46.868885,8.2392021
Sarnen,46.895673,8.2461492
Beckenried,46.966408,8.4744947
Buochs,46.973998,8.4205883
Dallenwil,46.933072,8.3911486
Emmetten,46.956566,8.5128414
Ennetbürgen,46.985187,8.4128263
Ennetmoos,46.95695,8.3374027
Hergiswil (NW),46.984094,8.3104542
Oberdorf (NW),46.957564,8.3855966
Stans,46.957061,8.3661026
Stansstad,46.979741,8.3373667
Wolfenschiessen,46.90806,8.3954757
Betschwanden,46.946424,9.0274873
Bilten,47.150091,9.0221711
Braunwald,46.939264,8.9984978
Elm,46.918883,9.1718971
Engi,46.982763,9.1523442
Ennenda,47.033828,9.0779218
Filzbach,47.120447,9.1296451
Glarus,46.979656,9.108812
Haslen,46.980261,9.0562007
Leuggelbach,46.977375,9.0458271
Linthal,46.918987,8.99714
Luchsingen,46.966693,9.0370301
Matt,46.959703,9.1710353
Mitlödi,47.011466,9.079913
Mollis,47.09336,9.0744112
Mühlehorn,47.116927,9.1731832
Näfels,47.099775,9.0630051
Netstal,47.061132,9.0529651
Nidfurn,46.986327,9.0544126
Niederurnen,47.125618,9.0535784
Oberurnen,47.115248,9.0596848
Obstalden,47.117113,9.1504524
Riedern,47.049948,9.0515165
Rüti (GL),46.93458,9.0128062
Schwanden (GL),46.997754,9.0775953
Schwändi,47.005464,9.0671059
Sool,47.000259,9.0855088
Baar,47.195198,8.5253985
Cham,47.182376,8.4611036
Hünenberg,47.175183,8.4259648
Menzingen,47.178291,8.5899339
Neuheim,47.204646,8.5751134
Oberägeri,47.13474,8.6132732
Risch,47.142262,8.4510077
Steinhausen,47.197508,8.4860144
Unterägeri,47.137412,8.584483
Walchwil,47.100528,8.5147778
Zug,47.148614,8.5539378
Autavaux,46.865066,6.8776916
Bollion,46.816678,6.8261808
Bussy (FR),46.835371,6.8879852
Châbles,46.826653,6.8097105
Châtillon (FR),46.832812,6.8289185
Cheiry,46.750588,6.8361997
Cheyres,46.814983,6.7873331
Cugy (FR),46.815539,6.8910259
Domdidier,46.867217,7.0133263
Dompierre (FR),46.852082,6.9907202
Estavayer-le-Lac,46.849641,6.8477378
Fétigny,46.796442,6.9139995
Font,46.83601,6.8241395
Forel (FR),46.875949,6.8883012
Gletterens,46.895344,6.9375533
Léchelles,46.82851,7.0145224
Lully (FR),46.833981,6.8445369
Ménières,46.783091,6.8808343
Montagny (FR),46.804662,6.9864444
Montbrelloz,46.853883,6.8858302
Morens (FR),46.84382,6.9070286
Murist,46.790642,6.8072023
Nuvilly,46.783043,6.830987
Prévondavaux,46.727735,6.7935514
Rueyres-les-Prés,46.859318,6.9163554
Russy,46.84205,7.0013076
Saint-Aubin (FR),46.890035,6.9802104
Seiry,46.812692,6.8302953
Sévaz,46.83827,6.8746273
Surpierre,46.744575,6.8607883
Vallon,46.882477,6.951657
Villeneuve (FR),46.748219,6.8707467
Vuissens,46.737673,6.7654076
Les Montets,46.810292,6.8499622
Delley-Portalban,46.92595,6.9406454
Auboranges,46.582484,6.805051
Billens-Hennens,46.687032,6.8911551
Chapelle (Glâne),46.585908,6.8365374
Le Châtelard,46.677584,6.9779194
Châtonnaye,46.752828,6.938321
Ecublens (FR),46.61073,6.8089033
Esmonts,46.639657,6.8520518
Grangettes,46.678335,6.9620824
Massonnens,46.699189,6.975348
Mézières (FR),46.678377,6.9264097
Montet (Glâne),46.643871,6.8140532
Romont (FR),46.693881,6.9119168
Rue,46.619839,6.8215209
Siviriez,46.657678,6.8769946
Ursy,46.635013,6.8359644
Villaz-Saint-Pierre,46.72074,6.95638
Vuarmarens,46.644815,6.8271093
Vuisternens-devant-Romont,46.653069,6.92926
Villorsonnens,46.70735,6.9960989
Torny,46.770835,6.9653043
La Folliaz,46.735787,6.9557083
Haut-Intyamon,46.521072,7.0602291
Pont-en-Ogoz,46.688164,7.0767346
Botterens,46.617967,7.1123024
Broc,46.604467,7.0989913
Bulle,46.619097,7.0581152
Cerniat (FR),46.634032,7.158908
Charmey,46.596175,7.1793056
Châtel-sur-Montsalvens,46.613968,7.1290698
Corbières,46.658273,7.1077166
Crésuz,46.619989,7.140824
Echarlens,46.646575,7.0758958
Grandvillard,46.539293,7.0849664
Gruyères,46.583682,7.08159
Hauteville,46.669648,7.1083702
Jaun,46.611395,7.2761312
Marsens,46.655671,7.0640919
Morlon,46.625852,7.0853862
Le Pâquier (FR),46.595064,7.0527454
Pont-la-Ville,46.699029,7.1110228
Riaz,46.640249,7.0616291
La Roche,46.696658,7.1393476
Sâles,46.636626,6.9743823
Sorens,46.670162,7.0612165
La Tour-de-Trême,46.608553,7.0659142
Vaulruz,46.620794,6.9882518
Villarbeney,46.629285,7.1096124
Villarvolard,46.645543,7.1085061
Vuadens,46.617439,7.0233135
Bas-Intyamon,46.562773,7.0966531
Arconciel,46.745995,7.1227813
Autafond,46.816399,7.0777244
Autigny,46.737046,7.0200732
Avry,46.787705,7.0708826
Belfaux,46.821626,7.1068684
Chénens,46.74088,7.0023814
Chésopelloz,46.807007,7.0792605
Corminboeuf,46.811632,7.1052486
Corpataux-Magnedens,46.741767,7.0909985
Corserey,46.773153,6.9922571
Cottens (FR),46.752109,7.0326696
Ependes (FR),46.754219,7.1458774
Farvagny,46.728885,7.064186
Ferpicloz,46.746831,7.1643978
Fribourg,46.678912,7.1027113
Givisiez,46.814505,7.1295693
Granges-Paccot,46.823973,7.1441932
Grolley,46.833117,7.0668617
Marly,46.774774,7.1601827
Matran,46.786171,7.0973405
Neyruz (FR),46.765139,7.0647696
Noréaz,46.80213,7.028259
Pierrafortscha,46.786934,7.1855097
Ponthaux,46.815937,7.0431899
Le Mouret,46.748714,7.1718165
Prez-vers-Noréaz,46.785857,7.0150524
Rossens (FR),46.724219,7.0978742
Le Glèbe,46.707757,7.0226506
Senèdes,46.742417,7.1420677
Treyvaux,46.727443,7.1364409
Villars-sur-Glâne,46.791321,7.1161892
Villarsel-sur-Marly,46.762721,7.1693822
Vuisternens-en-Ogoz,46.703947,7.0579232
Hauterive (FR),46.756634,7.0947394
La Brillaz,46.765379,7.016702
La Sonnaz,46.834926,7.1192544
Agriswil,46.953836,7.1972709
Barberêche,46.856831,7.1590853
Büchslen,46.94459,7.1797747
Courgevaux,46.907528,7.1110471
Courlevon,46.89051,7.1106549
Courtepin,46.866038,7.1228659
Cressier (FR),46.898668,7.1417574
Fräschels,46.997974,7.2075009
Galmiz,46.949381,7.1585965
Gempenach,46.940636,7.1975457
Greng,46.913355,7.090703
Gurmels,46.892804,7.1757732
Jeuss,46.903241,7.1656888
Kerzers,46.976132,7.1972834
Kleinbösingen,46.894418,7.2041572
Lurtigen,46.928574,7.1722603
Meyriez,46.92349,7.1067844
Misery-Courtion,46.858454,7.0843853
Muntelier,46.938625,7.1305874
Murten,46.928864,7.1163909
Ried bei Kerzers,46.955599,7.1855758
Salvenach,46.911338,7.1506919
Ulmiz,46.932111,7.2006542
Villarepos,46.883543,7.0728967
Bas-Vully,46.963181,7.1050886
Haut-Vully,46.952337,7.0754428
Wallenried,46.873652,7.1158753
Alterswil,46.795236,7.2604024
Brünisried,46.760158,7.2780335
Düdingen,46.849747,7.1904436
Giffers,46.761502,7.210014
Bösingen,46.892418,7.2273544
Heitenried,46.825977,7.3027277
Oberschrot,46.744261,7.2833892
Plaffeien,46.741454,7.2865098
Plasselb,46.735478,7.2516771
Rechthalten,46.767533,7.2400909
St. Antoni,46.820659,7.2607329
St. Silvester,46.741061,7.2193275
St. Ursen,46.78995,7.2183078
Schmitten (FR),46.856056,7.2474014
Tafers,46.815281,7.2167886
Tentlingen,46.769765,7.1983411
Ueberstorf,46.865057,7.3114056
Wünnewil-Flamatt,46.889459,7.3110208
Zumholz,46.754331,7.2914152
Attalens,46.5111,6.8489696
Bossonnens,46.521729,6.8495191
Châtel-Saint-Denis,46.526529,6.8996536
Granges (Veveyse),46.524577,6.829546
Remaufens,46.527614,6.8796623
Saint-Martin (FR),46.576329,6.8691224
Semsales,46.574033,6.9291121
Le Flon,46.60383,6.8732314
La Verrerie,46.589433,6.9213069
Egerkingen,47.322501,7.7947889
Härkingen,47.306964,7.815973
Kestenholz,47.28203,7.7549744
Neuendorf,47.296181,7.7970557
Niederbuchsiten,47.297787,7.7713959
Oberbuchsiten,47.311799,7.7652017
Oensingen,47.287489,7.7110465
Wolfwil,47.26971,7.794652
Aedermannsdorf,47.305451,7.6101111
Balsthal,47.314037,7.6947764
Gänsbrunnen,47.262293,7.4679582
Herbetswil,47.296247,7.5935558
Holderbank (SO),47.333016,7.7524655
Laupersdorf,47.313742,7.6528853
Matzendorf,47.306578,7.6291948
Mümliswil-Ramiswil,47.342768,7.7038598
Welschenrohr,47.280648,7.5252234
Aetigkofen,47.125248,7.4659137
Aetingen,47.132107,7.5055769
Balm bei Messen,47.10413,7.4314835
Bibern (SO),47.145834,7.4582469
Biezwil,47.114257,7.4171424
Brügglen,47.142736,7.4956854
Brunnenthal,47.086937,7.4689425
Gossliwil,47.13656,7.4338793
Hessigkofen,47.141618,7.4661542
Küttigkofen,47.150838,7.5156072
Kyburg-Buchegg,47.142096,7.5094944
Lüsslingen,47.191419,7.501381
Lüterkofen-Ichertswil,47.163784,7.506117
Lüterswil-Gächliwil,47.121615,7.4406167
Messen,47.090408,7.4473453
Mühledorf (SO),47.135473,7.4766238
Nennigkofen,47.186419,7.4942217
Oberramsern,47.114443,7.4622321
Schnottwil,47.109774,7.391221
Tscheppach,47.146922,7.4797786
Unterramsern,47.119215,7.4824314
Bättwil,47.489961,7.5093058
Büren (SO),47.449499,7.6712535
Dornach,47.48061,7.6176609
Gempen,47.475167,7.6602844
Hochwald,47.456242,7.6402192
Hofstetten-Flüh,47.477501,7.504475
Metzerlen-Mariastein,47.476261,7.4900151
Nuglar-St. Pantaleon,47.46015,7.6910021
Rodersdorf,47.480605,7.4566901
Seewen,47.435463,7.6582649
Witterswil,47.485855,7.5248795
Hauenstein-Ifenthal,47.375248,7.8596856
Kienberg,47.439649,7.9671385
Lostorf,47.38522,7.9462061
Niedererlinsbach,47.397067,8.0062112
Niedergösgen,47.373148,7.9926844
Obererlinsbach,47.410327,8.0019516
Obergösgen,47.364104,7.951209
Rohr (SO),47.410037,7.9538271
Stüsslingen,47.392886,7.9712891
Trimbach,47.363115,7.9023314
Winznau,47.365737,7.9306091
Wisen (SO),47.392324,7.885972
Aeschi (SO),47.18042,7.661874
Biberist,47.181061,7.5626086
Bolken,47.192582,7.66363
Deitingen,47.21431,7.619244
Derendingen,47.194497,7.5865899
Etziken,47.187199,7.6478981
Gerlafingen,47.169342,7.572082
Halten,47.168924,7.6063465
Heinrichswil-Winistorf,47.157202,7.6363996
Hersiwil,47.165952,7.6351711
Horriwil,47.182162,7.6223211
Hüniken,47.184877,7.636925
Kriegstetten,47.175109,7.59906
Lohn-Ammannsegg,47.171087,7.5267532
Luterbach,47.214574,7.5839238
Obergerlafingen,47.162425,7.5840222
Oekingen,47.178508,7.6046781
Recherswil,47.16125,7.5942522
Steinhof,47.161244,7.68624
Subingen,47.193952,7.6159259
Zuchwil,47.203759,7.5594101
Balm bei Günsberg,47.252606,7.5579507
Bellach,47.213407,7.4983313
Bettlach,47.201735,7.4254322
Feldbrunnen-St. Niklaus,47.22253,7.5449687
Flumenthal,47.235377,7.5985965
Grenchen,47.19115,7.3967199
Günsberg,47.257266,7.5768712
Hubersdorf,47.244383,7.588875
Kammersrohr,47.256025,7.592052
Langendorf,47.221453,7.5154309
Lommiswil,47.228899,7.4676496
Niederwil (SO),47.251649,7.5715003
Oberdorf (SO),47.22985,7.5027671
Riedholz,47.231087,7.569502
Rüttenen,47.231622,7.5308446
Selzach,47.205508,7.4549158
Boningen,47.306211,7.8551946
Däniken,47.354865,7.9811789
Dulliken,47.353718,7.9424681
Eppenberg-Wöschnau,47.383092,8.0244603
Fulenbach,47.273724,7.8309213
Gretzenbach,47.355161,7.9998602
Gunzgen,47.313655,7.8302701
Hägendorf,47.333167,7.8365612
Kappel (SO),47.322982,7.8495476
Olten,47.349657,7.903787
Rickenbach (SO),47.340534,7.8572469
Schönenwerd,47.372155,8.0054417
Starrkirch-Wil,47.346537,7.925075
Walterswil (SO),47.324515,7.9654227
Wangen bei Olten,47.341769,7.8708649
Solothurn,47.31874,7.6698284
Bärschwil,47.382024,7.4730851
Beinwil (SO),47.360808,7.5792172
Breitenbach,47.407846,7.5443007
Büsserach,47.391579,7.5405238
Erschwil,47.373539,7.5416625
Fehren,47.396746,7.5790875
Grindel,47.381705,7.5026184
Himmelried,47.42123,7.5980409
Kleinlützel,47.425955,7.4172702
Meltingen,47.387758,7.5898528
Nunningen,47.393972,7.6197691
Zullwil,47.390508,7.6000186
Basel,47.558108,7.5878261
Bettingen,47.571415,7.6639831
Riehen,47.581693,7.6479737
Aesch (BL),47.468245,7.5980395
Allschwil,47.55108,7.5365611
Arlesheim,47.493113,7.6202048
Biel-Benken,47.506771,7.520962
Binningen,47.53656,7.570077
Birsfelden,47.554215,7.6304739
Bottmingen,47.52345,7.5748727
Ettingen,47.481616,7.5441378
Münchenstein,47.518791,7.6174515
Muttenz,47.525113,7.6477401
Oberwil (BL),47.513694,7.5527853
Pfeffingen,47.457986,7.589006
Reinach (BL),47.493537,7.5910891
Schönenbuch,47.537296,7.5019867
Therwil,47.499297,7.5574673
Blauen,47.448914,7.51876
Brislach,47.418132,7.5433687
Burg im Leimental,47.457893,7.4414641
Dittingen,47.438328,7.4989147
Duggingen,47.452084,7.606511
Grellingen,47.441156,7.5876358
Laufen,47.42241,7.5020019
Liesberg,47.403861,7.4314696
Nenzlingen,47.447739,7.5621906
Roggenburg,47.433867,7.3402588
Röschenz,47.423941,7.4759958
Wahlen,47.402062,7.5148706
Zwingen,47.437754,7.5280899
Arisdorf,47.512392,7.7654983
Augst,47.533808,7.7206018
Bubendorf,47.446684,7.73535
Frenkendorf,47.502854,7.7138283
Füllinsdorf,47.505665,7.7299597
Giebenach,47.523792,7.7453139
Hersberg,47.492428,7.7827302
Lausen,47.473646,7.7591139
Liestal,47.483972,7.7347783
Lupsingen,47.446666,7.6938955
Pratteln,47.519201,7.6944741
Ramlinsburg,47.449928,7.7649057
Seltisberg,47.459828,7.7153815
Ziefen,47.430581,7.7063432
Anwil,47.452741,7.9424961
Böckten,47.463403,7.8387155
Buckten,47.410116,7.8447464
Buus,47.505526,7.8650401
Diepflingen,47.446478,7.8377491
Gelterkinden,47.464007,7.8544495
Häfelfingen,47.415035,7.8657357
Hemmiken,47.48802,7.8913586
Itingen,47.466536,7.7877841
Känerkinden,47.411995,7.8363096
Kilchberg (BL),47.426336,7.8984684
Läufelfingen,47.395816,7.8546951
Maisprach,47.524498,7.8427076
Nusshof,47.491851,7.8047393
Oltingen,47.432333,7.93486
Ormalingen,47.469645,7.875522
Rickenbach (BL),47.484617,7.8513361
Rothenfluh,47.460889,7.914597
Rümlingen,47.424436,7.8497922
Rünenberg,47.432095,7.881264
Sissach,47.463477,7.8125639
Tecknau,47.450106,7.8832932
Tenniken,47.436373,7.8116851
Thürnen,47.455696,7.8294607
Wenslingen,47.440539,7.907641
Wintersingen,47.494956,7.823229
Wittinsburg,47.425227,7.839909
Zeglingen,47.417114,7.9063676
Zunzgen,47.450423,7.8045996
Arboldswil,47.415891,7.7170041
Bennwil,47.404139,7.7801695
Bretzwil,47.397007,7.6508005
Diegten,47.409937,7.809077
Eptingen,47.384777,7.8217213
Hölstein,47.424735,7.7698197
Lampenberg,47.426738,7.759649
Langenbruck,47.349827,7.7681007
Lauwil,47.389819,7.6757885
Liedertswil,47.39155,7.71798
Niederdorf,47.405142,7.7509654
Oberdorf (BL),47.393815,7.7515654
Reigoldswil,47.397425,7.6918178
Titterten,47.401549,7.7171561
Waldenburg,47.383361,7.7485063
Gächlingen,47.702732,8.499197
Guntmadingen,47.685683,8.556991
Löhningen,47.701728,8.5510216
Neunkirch,47.689983,8.5000759
Altdorf (SH),47.784198,8.6593175
Bibern (SH),47.773233,8.6770024
Büttenhardt,47.756005,8.6538298
Dörflingen,47.707374,8.7203932
Hofen,47.782907,8.6767221
Lohn (SH),47.755729,8.670356
Opfertshofen (SH),47.777047,8.661041
Stetten (SH),47.736828,8.6590681
Thayngen,47.747,8.7061689
Bargen (SH),47.791799,8.6102341
Beringen,47.697569,8.5733833
Buchberg,47.57262,8.56076
Hemmental,47.734522,8.5797397
Merishausen,47.760944,8.6099627
Neuhausen am Rheinfall,47.681164,8.6197347
Rüdlingen,47.578946,8.5721611
Schaffhausen,47.696049,8.634513
Beggingen,47.766667,8.5363808
Schleitheim,47.748882,8.4845902
Siblingen,47.715145,8.519796
Buch (SH),47.71701,8.7831625
Hemishofen,47.676862,8.8317626
Ramsen,47.706842,8.811546
Stein am Rhein,47.659732,8.8596823
Hallau,47.696528,8.4578613
Oberhallau,47.705097,8.4783357
Trasadingen,47.667977,8.4304278
Wilchingen,47.667427,8.4668988
Herisau,47.38555,9.2787571
Hundwil,47.365674,9.3182713
Schönengrund,47.328009,9.2267766
Schwellbrunn,47.351997,9.2492024
Stein (AR),47.378229,9.3416677
Urnäsch,47.317862,9.2834506
Waldstatt,47.356336,9.2838414
Bühler,47.374399,9.4233806
Gais,47.362503,9.4542517
Speicher,47.412643,9.4424912
Teufen (AR),47.392763,9.3947222
Trogen,47.407988,9.4650591
Grub (AR),47.448166,9.5094743
Heiden,47.442172,9.532089
Lutzenberg,47.459378,9.561572
Rehetobel,47.426683,9.4804482
Reute (AR),47.41959,9.5726679
Wald (AR),47.414892,9.4916939
Walzenhausen,47.450658,9.6017721
Wolfhalden,47.452671,9.5507149
Appenzell,47.329951,9.4099311
Gonten,47.326177,9.3428845
Rüte,47.303675,9.457086
Schlatt-Haslen,47.368007,9.3677351
Schwende,47.285247,9.395792
Oberegg,47.422959,9.5505705
Häggenschwil,47.4944,9.3460622
Muolen,47.521078,9.3237585
St. Gallen,47.425618,9.3762397
Wittenbach,47.462407,9.3820343
Berg (SG),47.486602,9.4066582
Eggersriet,47.442518,9.4704406
Goldach,47.477416,9.4693311
Mörschwil,47.467553,9.4227493
Rorschach,47.477969,9.4914025
Rorschacherberg,47.468756,9.4945663
Steinach,47.500611,9.4390653
Tübach,47.485782,9.4509483
Untereggen,47.451635,9.4496415
Au (SG),47.433181,9.6365141
Balgach,47.406883,9.6062727
Berneck,47.424902,9.6102137
Diepoldsau,47.385951,9.6556042
Rheineck,47.470634,9.584108
St. Margrethen,47.451028,9.6410249
Thal,47.469421,9.5630244
Widnau,47.405343,9.6356294
Altstätten,47.378219,9.5413964
Eichberg,47.346121,9.5249647
Marbach (SG),47.391987,9.5686092
Oberriet (SG),47.320756,9.5675673
Rebstein,47.398476,9.5822387
Rüthi (SG),47.295593,9.537187
Buchs (SG),47.162763,9.4764086
Gams,47.205411,9.4421264
Grabs,47.181656,9.4446312
Sennwald,47.261503,9.5037691
Sevelen,47.120624,9.486921
Wartau,47.092649,9.4548092
Bad Ragaz,47.002528,9.5016438
Flums,47.093967,9.343589
Mels,47.046733,9.4192932
Pfäfers,46.990876,9.5012318
Quarten,47.107202,9.240747
Sargans,47.048264,9.4401995
Vilters-Wangs,47.006027,9.4168498
Walenstadt,47.122902,9.3140113
Amden,47.149632,9.1411228
Benken (SG),47.192988,8.9963948
Kaltbrunn,47.213457,9.0249831
Rieden,47.483668,8.3027708
Schänis,47.159176,9.0466793
Weesen,47.134674,9.0973561
Ernetschwil,47.237514,9.0000595
Eschenbach (SG),47.27424,8.9931467
Goldingen,47.262819,8.9665579
Gommiswald,47.231041,9.0237277
Jona,47.229966,8.837658
Rapperswil (SG),47.224955,8.8168416
St. Gallenkappel,47.245722,8.9652667
Schmerikon,47.2256,8.9415774
Uznach,47.225088,8.98556
Alt St. Johann,47.194093,9.2840566
Ebnat-Kappel,47.263534,9.1233561
Stein (SG),47.19917,9.2283386
Wildhaus,47.203318,9.3507024
Nesslau-Krummenau,47.2328,9.1904719
Brunnadern,47.335225,9.1304283
Hemberg,47.300466,9.1756588
Krinau,47.318803,9.0517385
Lichtensteig,47.323144,9.0874862
Oberhelfenschwil,47.346188,9.1088507
St. Peterzell,47.317692,9.1763057
Wattwil,47.300445,9.0871047
Bütschwil,47.354552,9.0753212
Kirchberg (SG),47.409509,9.0267009
Lütisburg,47.394501,9.0808205
Mosnang,47.362164,9.0400516
Degersheim,47.37359,9.1990317
Flawil,47.414613,9.1861489
Ganterschwil,47.380992,9.0884271
Jonschwil,47.423195,9.0865706
Mogelsberg,47.360789,9.1358183
Oberuzwil,47.429972,9.1224313
Uzwil,47.437051,9.1333201
Bronschhofen,47.475661,9.0369696
Niederbüren,47.466119,9.2042148
Niederhelfenschwil,47.47488,9.1856106
Oberbüren,47.450714,9.1611356
Wil (SG),47.465266,9.0415478
Zuzwil (SG),47.471314,9.1095657
Andwil (SG),47.438492,9.2720175
Gaiserwald,47.426665,9.3340635
Gossau (SG),47.415591,9.249359
Waldkirch,47.469842,9.2849709
Alvaschein,46.675063,9.5503189
Mon,46.649959,9.5639817
Mutten,46.678136,9.500036
Stierva,46.663679,9.5419833
Tiefencastel,46.66156,9.5764895
Vaz,46.722493,9.5442872
Alvaneu,46.674292,9.6405195
Brienz,46.756,8.0303006
Lantsch,46.685401,9.5625528
Schmitten (GR),46.687637,9.6728603
Surava,46.665487,9.6125514
Bergün,46.629038,9.7452826
Filisur,46.673778,9.6859723
Wiesen (GR),46.703691,9.7136998
Bivio,46.468747,9.6496931
Cunter,46.607585,9.5925023
Marmorera,46.497428,9.6428661
Mulegns,46.524063,9.6209895
Riom-Parsonz,46.614959,9.5826836
Salouf,46.624372,9.5753208
Savognin,46.596903,9.5980124
Sur,46.57068,9.3664422
Tinizong-Rona,46.575681,9.623943
Brusio,46.258362,10.126085
Poschiavo,46.32636,10.058167
Castrisch,46.775898,9.2311737
Falera,46.800798,9.2321371
Flond,46.76756,9.1652798
Ilanz,46.775575,9.2054956
Laax,46.806412,9.2581267
Ladir,46.789921,9.2026616
Luven,46.76115,9.1989494
Pitasch,46.731258,9.2173156
Riein,46.744387,9.2331737
Ruschein,46.785315,9.1920079
Sagogn,46.791868,9.2577578
Schluein,46.788594,9.2282504
Schnaus,46.776585,9.179873
Sevgein,46.765505,9.2210313
Valendas,46.787416,9.2815862
Versam,46.792836,9.3364282
Cumbel,46.725182,9.1911667
Duvin,46.714514,9.2118925
Degen,46.707333,9.1703536
Lumbrein,46.685224,9.1369576
Morissen,46.729928,9.1806322
St. Martin,46.674519,9.1803603
Suraua,46.829099,9.3334373
Surcuolm,46.757975,9.1437754
Vals,46.616585,9.1805169
Vignogn,46.698565,9.1557161
Vella,46.719281,9.1731284
Vrin,46.655567,9.0984401
Andiast,46.784958,9.1141778
Obersaxen,46.723543,9.0691601
Pigniu,46.809536,9.1159558
Rueun,46.779123,9.149704
Siat,46.790839,9.1631245
Waltensburg,46.776679,9.1160541
Almens,46.737638,9.4563322
Feldis,46.794457,9.4323005
Fürstenau,46.720278,9.4467377
Paspels,46.748673,9.4440897
Pratval,46.731517,9.4462881
Rodels,46.73607,9.4453368
Rothenbrunnen,46.768405,9.4273397
Scharans,46.718123,9.4597448
Scheid,46.776731,9.4487977
Sils im Domleschg,46.7002,9.4538996
Trans,46.764568,9.4611108
Tumegl,46.762063,9.4423187
Safien,46.681809,9.3160421
Tenna,46.746979,9.3390283
Cazis,46.721299,9.4303829
Flerden,46.702298,9.406114
Masein,46.702189,9.4268534
Portein,46.711609,9.4064585
Präz,46.742289,9.4053792
Sarn,46.719988,9.4099271
Tartar,46.71982,9.419231
Thusis,46.697237,9.4390836
Tschappina,46.687244,9.3826798
Urmein,46.691701,9.4018335
Avers,46.444623,9.5329049
Hinterrhein,46.560541,9.3427813
Medels im Rheinwald,46.547332,9.2942824
Nufenen,46.539426,9.2435939
Splügen,46.553071,9.3234097
Sufers,46.57068,9.3664422
Andeer,46.602266,9.4269682
Ausserferrera,46.556919,9.4394374
Casti-Wergenstein,46.61593,9.35401
Clugin,46.616717,9.426261
Donat,46.62912,9.4298544
Innerferrera,46.521121,9.4429332
Lohn (GR),46.65137,9.4273525
Mathon,46.63623,9.4146131
Pignia,46.613054,9.4381268
Rongellen,46.676792,9.4458365
Zillis-Reischen,46.648668,9.4669473
Bonaduz,46.81132,9.3984396
Domat,46.835127,9.4506859
Rhäzüns,46.79891,9.3979906
Felsberg,46.846054,9.477555
Flims,46.833244,9.2834557
Tamins,46.829295,9.4064966
Trin,46.828208,9.3621614
Ardez,46.774537,10.201209
Guarda,46.775385,10.151893
Lavin,46.767826,10.11149
Susch,46.749376,10.079741
Tarasp,46.777999,10.260791
Zernez,46.697984,10.094331
Ramosch,46.834503,10.382331
Samnaun,46.944242,10.360084
Tschlin,46.869209,10.425259
Ftan,46.795168,10.248856
Scuol,46.797637,10.299623
Sent,46.81697,10.337673
Bondo,46.334882,9.5546105
Castasegna,46.334164,9.5173527
Soglio,46.342072,9.5398802
Stampa,46.343307,9.590643
Vicosoprano,46.35074,9.6216495
Bever,46.551824,9.889063
Celerina,46.51323,9.8586248
Madulain,46.58687,9.9389122
Pontresina,46.489993,9.9042965
La Punt-Chamues-ch,46.578877,9.9260141
Samedan,46.53324,9.874586
St. Moritz,46.497896,9.8392428
S-chanf,46.612503,9.9855019
Sils im Engadinl,47.00016,8.01427
Silvaplana,46.459933,9.7959165
Zuoz,46.601289,9.9608039
Arvigo,46.301947,9.113984
Braggio,46.303349,9.1242058
Buseno,46.273156,9.1066178
Castaneda,46.258005,9.1399887
Cauco,46.33552,9.1208435
Rossa,46.373415,9.12655
Santa Maria in Calanca,46.263393,9.144283
Selma,46.320122,9.1206546
Lostallo,46.312938,9.1956341
Mesocco,46.392173,9.2325189
Soazza,46.366149,9.2216584
Cama,46.272046,9.1691657
Grono,46.247378,9.1458622
Leggia,46.262949,9.1634467
Roveredo (GR),46.234901,9.1249754
San Vittore,46.238972,9.1061939
Verdabbio,46.268372,9.1569902
Fuldera,46.609243,10.370354
Lü,46.622633,10.369106
Müstair,46.627091,10.44662
Sta. Maria Val Müstair,46.601758,10.420218
Tschierv,46.62661,10.335555
Valchava,46.600758,10.407395
Davos,46.796198,9.8236892
Fideris,46.914665,9.74113
Furna,46.937123,9.6766862
Jenaz,46.927453,9.7130354
Klosters-Serneus,46.861774,9.894565
Conters im Prättigau,46.902012,9.7975967
Küblis,46.913777,9.7729879
Saas,46.910857,9.8085204
Luzein,46.965818,9.8151835
St. Antönien Ascharina,46.969419,9.8139676
St. Antönien,46.969739,9.813468
Chur,46.854747,9.5264904
Churwalden,46.778453,9.5429675
Malix,46.81187,9.5313669
Parpan,46.759631,9.5598212
Praden,46.824093,9.5815612
Tschiertschen,46.806655,9.5881797
Arosa,46.779725,9.6781356
Calfreisen,46.841367,9.5934213
Castiel,46.839283,9.6026311
Langwies,46.820556,9.7126357
Lüen,46.833197,9.6124596
Maladers,46.836285,9.5603995
Molinis,46.826524,9.6550004
Pagig,46.837991,9.6382576
Peist,46.832781,9.6736872
St. Peter,47.371083,8.5407265
Haldenstein,46.878015,9.5267447
Igis,46.945816,9.5735636
Mastrils,46.966844,9.5424803
Says,46.903832,9.5770589
Trimmis,46.89708,9.5634251
Untervaz,46.928566,9.5348195
Zizers,46.936996,9.5665236
Fläsch,47.026756,9.5133657
Jenins,47.00133,9.5578327
Maienfeld,47.007729,9.5309225
Malans,46.982146,9.5761204
Grüsch,46.979187,9.6471438
Schiers,46.968931,9.6900481
Fanas,46.984865,9.6670277
Seewis im Prättigau,46.98201,9.6368062
Valzeina,46.949287,9.6025263
Breil,46.767406,9.0622332
Disentis,46.704175,8.8549785
Medel (Lucmagn),46.627536,8.8700811
Schlans,46.753096,9.015136
Sumvitg,46.728441,8.9384718
Tujetsch,46.657908,8.7356877
Trun,46.743366,8.9896738
Aarau,47.392715,8.0444448
Biberstein,47.414067,8.0821155
Buchs (AG),47.391032,8.0692413
Densbüren,47.454327,8.0538734
Erlinsbach,47.396866,8.0133738
Gränichen,47.359283,8.0971009
Hirschthal,47.319992,8.0543407
Küttigen,47.419454,8.0432568
Muhen,47.340834,8.0535781
Oberentfelden,47.356755,8.0470858
Rohr (AG),47.401361,8.0820154
Suhr,47.373166,8.079534
Unterentfelden,47.367012,8.0424171
Baden,47.473683,8.3086822
Bellikon,47.390043,8.3461275
Bergdietikon,47.38984,8.3865262
Birmenstorf (AG),47.461132,8.2493768
Ennetbaden,47.478576,8.3153871
Fislisbach,47.436963,8.2899457
Freienwil,47.503497,8.3279656
Gebenstorf,47.481951,8.2408818
Killwangen,47.431555,8.3518766
Künten,47.389167,8.3293117
Mägenwil,47.412226,8.2301927
Mellingen,47.419513,8.274659
Neuenhof,47.446931,8.3225886
Niederrohrdorf,47.425411,8.3046257
Oberehrendingen,47.493653,8.3422279
Oberrohrdorf,47.421817,8.316452
Obersiggenthal,47.487555,8.2940052
Remetschwil,47.409032,8.3279875
Spreitenbach,47.418244,8.3640342
Stetten (AG),47.399458,8.3074009
Turgi,47.493159,8.2518887
Unterehrendingen,47.503714,8.3470583
Untersiggenthal,47.499202,8.2574722
Wettingen,47.465839,8.3266114
Wohlenschwil,47.412473,8.2578773
Würenlingen,47.532088,8.2569618
Würenlos,47.442106,8.3618108
Arni (AG),47.319163,8.4200738
Berikon,47.352835,8.3701013
Bremgarten (AG),47.351456,8.3423906
Büttikon,47.326015,8.2677621
Dottikon,47.383882,8.241593
Eggenwil,47.369875,8.3399569
Fischbach-Göslikon,47.371219,8.3071462
Hägglingen,47.387823,8.2535062
Hermetschwil-Staffeln,47.330951,8.3413696
Hilfikon,47.331983,8.2468223
Jonen,47.295974,8.3950641
Niederwil (AG),47.376356,8.2947614
Oberlunkhofen,47.311931,8.3904974
Oberwil-Lieli,47.333899,8.3843501
Rudolfstetten-Friedlisberg,47.362606,8.388943
Sarmenstorf,47.309921,8.2485603
Tägerig,47.404912,8.2775537
Uezwil,47.317191,8.2758947
Unterlunkhofen,47.322212,8.3805098
Villmergen,47.347199,8.244908
Widen,47.369628,8.3595132
Wohlen (AG),47.350495,8.2786906
Zufikon,47.348323,8.3580094
Islisberg,47.322947,8.4393127
Auenstein,47.416821,8.1370602
Birr,47.434534,8.2029778
Birrhard,47.432696,8.24414
Bözen,47.495765,8.0835501
Brugg,47.482463,8.2085662
Effingen,47.489696,8.1035209
Elfingen,47.507201,8.0990017
Gallenkirch,47.479333,8.1249307
Habsburg,47.462066,8.1871807
Hausen (AG),47.460383,8.2150502
Hottwil,47.547442,8.1623003
Linn,47.470126,8.1309341
Lupfig,47.439717,8.2013965
Mandach,47.546841,8.185889
Mönthal,47.518375,8.1439869
Mülligen,47.457194,8.2402149
Oberbözberg,47.497465,8.1549171
Oberflachs,47.441841,8.1294405
Remigen,47.516428,8.1903933
Riniken,47.493969,8.1876762
Rüfenach,47.508089,8.205682
Scherz,47.446326,8.183993
Schinznach-Bad,47.451507,8.1676758
Schinznach-Dorf,47.446799,8.1422836
Stilli,47.515075,8.2315106
Thalheim (AG),47.43671,8.0999521
Umiken,47.482462,8.1893151
Unterbözberg,47.485032,8.1562639
Veltheim (AG),47.437709,8.1461059
Villigen,47.526268,8.2147282
Villnachern,47.472242,8.160523
Windisch,47.479347,8.2179918
Beinwil am See,47.266451,8.2027093
Birrwil,47.29034,8.1965202
Burg (AG),47.235264,8.1786611
Dürrenäsch,47.321514,8.1571142
Gontenschwil,47.272483,8.1452923
Holziken,47.320256,8.04006
Leimbach (AG),47.272275,8.1696176
Leutwil,47.309503,8.1731304
Menziken,47.240878,8.187274
Oberkulm,47.298919,8.1216116
Reinach (AG),47.253968,8.182824
Schlossrued,47.290618,8.087858
Schmiedrued,47.270044,8.103455
Schöftland,47.305452,8.0527946
Teufenthal (AG),47.330071,8.1152406
Unterkulm,47.310373,8.11471
Zetzwil,47.286261,8.1508263
Eiken,47.531251,7.9894417
Etzgen,47.572031,8.1108566
Frick,47.507508,8.0203065
Gansingen,47.543297,8.1343542
Gipf-Oberfrick,47.497511,8.0029699
Herznach,47.473371,8.0502339
Hornussen,47.500531,8.0633909
Ittenthal,47.518521,8.0592609
Kaisten,47.53863,8.0446209
Laufenburg,47.560462,8.0601696
Mettau,47.56391,8.1274979
Münchwilen (AG),47.537951,7.9629997
Oberhof,47.45042,8.0068129
Oberhofen (AG),47.553701,8.1316233
Oeschgen,47.519141,8.0170821
Schwaderloch,47.585397,8.1435346
Sisseln,47.553462,7.989416
Sulz (AG),47.534738,8.0961846
Ueken,47.48452,8.04438
Wil (AG),47.560998,8.1519962
Wittnau,47.481122,7.9753983
Wölflinswil,47.460819,7.9976535
Zeihen,47.476503,8.0856118
Ammerswil,47.370562,8.2061524
Boniswil,47.316157,8.1852511
Brunegg,47.419242,8.21637
Dintikon,47.363629,8.2281106
Egliswil,47.349923,8.186191
Fahrwangen,47.294604,8.2413934
Hallwil,47.329448,8.1750054
Hendschiken,47.386254,8.2168579
Holderbank (AG),47.427089,8.1686653
Hunzenschwil,47.385469,8.1242795
Lenzburg,47.387314,8.1821873
Meisterschwanden,47.294984,8.2277227
Möriken-Wildegg,47.415381,8.1636356
Niederlenz,47.401952,8.1757198
Othmarsingen,47.402348,8.2162901
Rupperswil,47.402728,8.1274477
Schafisheim,47.378115,8.143202
Seengen,47.325291,8.2079184
Seon,47.346001,8.1593554
Staufen,47.379984,8.1665273
Abtwil,47.174443,8.3546821
Aristau,47.286347,8.3626162
Auw,47.211664,8.364871
Beinwil (Freiamt),47.230228,8.3422897
Benzenschwil,47.248007,8.3640314
Besenbüren,47.312322,8.3439287
Bettwil,47.290273,8.265109
Boswil,47.300436,8.3137505
Bünzen,47.311661,8.3260392
Buttwil,47.267594,8.3112049
Dietwil,47.148393,8.3930963
Geltwil,47.249199,8.3223867
Kallern,47.317089,8.2952953
Merenschwand,47.260703,8.3732781
Mühlau,47.229106,8.3886537
Muri (AG),47.275661,8.3377829
Oberrüti,47.166912,8.3954207
Rottenschwil,47.314122,8.3638821
Sins,47.191032,8.3946059
Waltenschwil,47.33454,8.3024947
Hellikon,47.509569,7.9249732
Kaiseraugst,47.539982,7.7230178
Magden,47.528374,7.8116008
Möhlin,47.560991,7.8431299
Mumpf,47.545436,7.920759
Obermumpf,47.529334,7.9381928
Olsberg,47.521393,7.7835481
Rheinfelden,47.554386,7.7922905
Schupfart,47.514547,7.9657804
Stein (AG),47.545121,7.9540042
Wallbach,47.559924,7.902809
Wegenstetten,47.499511,7.9337595
Zeiningen,47.541444,7.8716277
Zuzgen,47.52544,7.900246
Aarburg,47.320642,7.8993599
Attelwil,47.259334,8.0433214
Bottenwil,47.285455,8.0052577
Brittnau,47.258682,7.9466147
Kirchleerau,47.275507,8.0702913
Kölliken,47.335267,8.0231804
Moosleerau,47.269211,8.0631076
Murgenthal,47.262773,7.8319249
Oftringen,47.31266,7.92099
Reitnau,47.251323,8.0449307
Rothrist,47.302912,7.8826232
Safenwil,47.318739,7.9841811
Staffelbach,47.283473,8.0419242
Strengelbach,47.27903,7.9289955
Uerkheim,47.30515,8.0253266
Vordemwald,47.276659,7.9009035
Wiliberg,47.268431,8.014673
Zofingen,47.288491,7.9458259
Baldingen,47.554707,8.313637
Böbikon,47.553731,8.333123
Böttstein,47.556833,8.221822
Döttingen,47.57399,8.2569004
Endingen,47.537617,8.2901196
Fisibach,47.56371,8.4100542
Full-Reuenthal,47.613605,8.2048625
Kaiserstuhl,47.568452,8.4183639
Klingnau,47.581005,8.2500088
Koblenz,47.608832,8.2386953
Leibstadt,47.590508,8.1756561
Lengnau (AG),47.521079,8.3301378
Leuggern,47.579822,8.217218
Mellikon,47.567172,8.3517064
Rekingen (AG),47.570715,8.3204135
Rietheim,47.600811,8.2778878
Rümikon,47.565865,8.3755712
Schneisingen,47.51841,8.364545
Siglistorf,47.545389,8.3808698
Tegerfelden,47.560798,8.2858739
Unterendingen,47.546947,8.2890979
Wislikofen,47.557873,8.3622093
Zurzach,47.586648,8.2940658
Arbon,47.514926,9.4304026
Dozwil,47.575938,9.3190975
Egnach,47.543216,9.3814541
Hefenhofen,47.558993,9.3067983
Horn,47.494654,9.4626537
Kesswil,47.593192,9.3174354
Roggwil (TG),47.501736,9.3878476
Romanshorn,47.565445,9.3776036
Salmsach,47.553619,9.3718492
Sommeri,47.567253,9.2900603
Uttwil,47.583551,9.3403851
Amriswil,47.550023,9.2981219
Bischofszell,47.49377,9.2409168
Erlen,47.550446,9.2254631
Hauptwil-Gottshaus,47.490164,9.2848167
Hohentannen,47.508395,9.2246069
Kradolf-Schönenberg,47.516062,9.1866192
Sulgen,47.545265,9.181648
Zihlschlacht-Sitterdorf,47.514206,9.2592692
Basadingen-Schlattingen,47.660012,8.7546409
Diessenhofen,47.687532,8.7492673
Schlatt (TG),47.66827,8.6996235
Aadorf,47.491578,8.9029526
Felben-Wellhausen,47.575645,8.939863
Frauenfeld,47.556191,8.8963347
Gachnang,47.539652,8.8523731
Hüttlingen,47.57809,8.9797096
Matzingen,47.519983,8.934077
Neunforn,47.603854,8.7659248
Stettfurt,47.52502,8.9545165
Thundorf,47.545585,8.9636338
Uesslingen-Buch,47.591044,8.831455
Warth-Weiningen,47.587452,8.8881897
Altnau,47.61241,9.260705
Bottighofen,47.638688,9.2068831
Ermatingen,47.669325,9.0798991
Gottlieben,47.664026,9.1343895
Güttingen,47.602453,9.2878219
Kemmental,47.616318,9.1549884
Kreuzlingen,47.646436,9.1725621
Langrickenbach,47.593591,9.2472949
Lengwil,47.624635,9.1944314
Münsterlingen,47.631287,9.2329998
Tägerwilen,47.656399,9.1310646
Wäldi,47.634406,9.0955279
Affeltrangen,47.526556,9.0318946
Bettwiesen,47.497374,9.0257786
Bichelsee-Balterswil,47.452075,8.9266257
Braunau,47.503619,9.0723159
Eschlikon,47.462695,8.957156
Fischingen,47.416182,8.9698021
Lommis,47.516675,8.9938693
Münchwilen (TG),47.47777,8.9976456
Rickenbach (TG),47.447773,9.050699
Schönholzerswilen,47.516593,9.1392258
Sirnach,47.461402,8.9934296
Tobel-Tägerschen,47.510326,9.0262647
Wängi,47.496703,8.9533301
Wilen (TG),47.451714,9.0341561
Wuppenau,47.496537,9.1087005
Berlingen,47.67426,9.0179057
Eschenz,47.647356,8.8748245
Herdern,47.605869,8.908617
Homburg,47.634433,9.0062342
Hüttwilen,47.607393,8.8719223
Mammern,47.646185,8.9157018
Müllheim,47.601959,9.0020119
Pfyn,47.597033,8.9536736
Raperswilen,47.633025,9.0424448
Salenstein,47.669479,9.05922
Steckborn,47.665343,8.9815246
Wagenhausen,47.659075,8.8503702
Amlikon-Bissegg,47.561924,9.0402072
Berg (TG),47.579522,9.1681977
Birwinken,47.582113,9.1976761
Bürglen (TG),47.549881,9.1529503
Bussnang,47.558078,9.0797264
Märstetten,47.592608,9.0677996
Weinfelden,47.566919,9.1097539
Wigoltingen,47.596719,9.0320675
Arbedo-Castione,46.207471,9.0712175
Bellinzona,46.192054,9.0205888
Cadenazzo,46.150995,8.9458762
Camorino,46.163643,9.0057614
Giubiasco,46.173916,9.0134077
Gnosca,46.23242,9.0221789
Gorduno,46.218571,9.0327169
Gudo,46.175652,8.9443724
Isone,46.129156,8.9852131
Lumino,46.231874,9.0672648
Medeglia,46.115449,8.9692607
Moleno,46.26885,8.9938875
Monte Carasso,46.187586,8.9991688
Pianezzo,46.168953,9.029512
Preonzo,46.265021,9.0004121
Sant'Antonino,46.153246,8.9743579
Sant'Antonio,46.419023,8.6047518
Sementina,46.182746,8.9925576
Aquila,46.504063,8.9489762
Campo (Blenio),46.557057,8.9353766
Ghirone,46.560186,8.9448009
Ludiano,46.41862,8.971137
Malvaglia,46.412236,8.9801587
Olivone,46.530396,8.9384493
Semione,46.408141,8.9718558
Torre,46.488558,8.9525663
Acquarossa,46.455027,8.9422833
Airolo,46.529031,8.6086045
Anzonico,46.431513,8.8620578
Bedretto,46.505934,8.5114708
Bodio,46.380455,8.9063454
Calonico,46.450721,8.8416008
Calpiogna,46.487003,8.8050249
Campello,46.486978,8.818803
Cavagnago,46.413269,8.8817499
Chiggiogna,46.468749,8.8199128
Chironico,46.423265,8.8436935
Dalpe,46.473118,8.7748127
Faido,46.478043,8.8009322
Giornico,46.401749,8.8766129
Mairengo,46.488208,8.790975
Osco,46.493671,8.7813731
Personico,46.370245,8.9178469
Pollegio,46.364913,8.9435548
Prato (Leventina),46.482899,8.7565232
Quinto,46.510914,8.711538
Rossura,46.475747,8.8252655
Sobrio,46.399726,8.9015965
Ascona,46.155422,8.7707865
Borgnone,46.159638,8.6165561
Brione (Verzasca),46.296376,8.7908609
Brione sopra Minusio,46.183208,8.8132035
Brissago,46.120066,8.7121456
Caviano,46.107495,8.7667854
Cavigliano,46.184668,8.7190661
Contone,46.14877,8.9261455
Corippo,46.235845,8.8410207
Cugnasco,46.176498,8.9233539
Frasco,46.337762,8.804355
Gerra (Gambarogno),46.122183,8.7837968
Gerra (Verzasca),46.318525,8.8026066
Gordola,46.181394,8.8633895
Gresso,46.224929,8.615729
Indemini,46.094528,8.8259696
Intragna,46.177506,8.700411
Lavertezzo,46.178533,8.8892225
Locarno,46.169574,8.7954859
Losone,46.167984,8.7633619
Magadino,46.147427,8.8559472
Mergoscia,46.210654,8.8471958
Minusio,46.175525,8.8118196
Mosogno,46.19847,8.639848
Muralto,46.173779,8.8011979
Orselina,46.177815,8.7956508
Palagnedra,46.153991,8.632163
Piazzogna,46.134631,8.8204065
Ronco sopra Ascona,46.143337,8.7263426
San Nazzaro,46.13144,8.802462
Sant'Abbondio,46.109988,8.7729769
Sonogno,46.350308,8.7863269
Tegna,46.186505,8.7431483
Tenero-Contra,46.184115,8.8453084
Vergeletto,46.226641,8.6024616
Verscio,46.18599,8.7312069
Vira (Gambarogno),46.143854,8.8418863
Vogorno,46.222648,8.8598068
Onsernone,46.222651,8.6016975
Isorno,46.201919,8.5898797
Agno,45.996859,8.9002207
Aranno,46.01715,8.8700541
Arogno,45.959638,8.9865107
Astano,46.012603,8.8159393
Barbengo,45.959977,8.9138904
Bedano,46.050739,8.920079
Bedigliora,46.002587,8.840805
Bidogno,46.078913,9.0000973
Bioggio,46.014105,8.9076167
Bironico,46.113569,8.9329745
Bissone,45.950654,8.9651807
Bogno,46.089944,9.0628288
Brusino Arsizio,45.927183,8.9374894
Cademario,46.021195,8.8942577
Cadempino,46.033392,8.9314621
Cadro,46.044914,8.9843267
Camignolo,46.105627,8.9347603
Canobbio,46.034999,8.9672454
Carabbia,45.972065,8.9382852
Carabietta,45.968458,8.9002778
Carona,45.957456,8.935792
Caslano,45.970872,8.8836544
Certara,46.0848,9.0596619
Cimadera,46.079025,9.0464325
Comano,46.038073,8.9533252
Corticiasca,46.087566,9.0183508
Croglio,45.988479,8.8419197
Cureglia,46.037316,8.9445412
Curio,46.002018,8.8631128
Grancia,45.967454,8.9274853
Gravesano,46.041467,8.9196174
Iseo,46.004479,8.8817692
Lamone,46.044713,8.9325447
Lugaggia,46.062405,8.9729427
Lugano,46.00501,8.9520281
Magliaso,45.981819,8.8885442
Manno,46.033988,8.9195033
Maroggia,45.932877,8.9713503
Massagno,46.0127,8.9443667
Melano,45.921589,8.9860256
Melide,45.954435,8.9476217
Mezzovico-Vira,46.09134,8.9189469
Miglieglia,46.024364,8.8570318
Monteggio,45.995763,8.8089353
Morcote,45.922678,8.9150466
Muzzano,45.997796,8.9228082
Neggio,45.987142,8.8789312
Novaggio,46.010827,8.8558506
Origlio,46.051418,8.9471687
Paradiso,45.989731,8.9461979
Ponte Capriasca,46.059948,8.9495125
Ponte Tresa,45.970147,8.8590331
Porza,46.027073,8.9534436
Pura,45.985095,8.8691189
Rivera,46.12305,8.9230334
Rovio,45.933078,8.9884561
Savosa,46.798562,8.2319736
Sessa,45.999835,8.81894
Sigirino,46.081424,8.9169156
Sonvico,46.058447,8.9905315
Sorengo,46.00057,8.9351621
Capriasca,46.067369,8.9714894
Torricella-Taverne,46.065677,8.924762
Valcolla,46.096257,9.048291
Vernate,45.99492,8.8876028
Vezia,46.024654,8.936741
Vico Morcote,45.931263,8.9242053
Villa Luganese,46.051631,8.9928297
Collina d'Oro,45.979111,8.917952
Alto Malcantone,46.050355,8.8840822
Arzo,45.875263,8.9398672
Balerna,45.849191,9.0070811
Besazio,45.873216,8.9530612
Bruzella,45.881485,9.0362137
Cabbio,45.898105,9.046203
Caneggio,45.87259,9.0300008
Capolago,45.905447,8.9812298
Castel San Pietro,45.861625,9.0085121
Chiasso,45.835521,9.0290169
Coldrerio,45.853838,8.9871005
Genestrerio,45.855364,8.9604027
Ligornetto,45.862305,8.9524612
Mendrisio,45.870966,8.9875293
Meride,45.890504,8.953433
Morbio Inferiore,45.853047,9.016289
Morbio Superiore,45.861458,9.0205616
Muggio,45.903163,9.0426896
Novazzano,45.842118,8.9802304
Rancate,45.870598,8.9678459
Riva San Vitale,45.905767,8.970547
Sagno,45.856956,9.0389091
Stabio,45.849946,8.9376319
Tremona,45.880705,8.9565873
Vacallo,45.847307,9.0347767
Biasca,46.360627,8.9714023
Claro,46.255255,9.0231951
Cresciano,46.28077,9.0054648
Iragna,46.328924,8.9672259
Lodrino,46.301124,8.9813811
Osogna,46.311565,8.9873524
Avegno,46.20317,8.7461132
Bignasco,46.339734,8.6085558
Bosco,46.316784,8.4918978
Campo (Vallemaggia),46.28887,8.496085
Cavergno,46.345167,8.6072509
Cerentino,46.305515,8.5466526
Cevio,46.31696,8.6018223
Gordevio,46.226247,8.7436606
Linescio,46.308228,8.5834299
Maggia,46.275493,8.6747843
Lavizzara,46.409528,8.6466074
Aigle,46.317901,6.9688929
Bex,46.251378,7.0123881
Chessel,46.349573,6.8944469
Corbeyrier,46.3495,6.9597544
Gryon,46.274663,7.063671
Lavey-Morcles,46.207377,7.0414641
Leysin,46.34387,7.0148403
Noville,46.381711,6.8996176
Ollon,46.297243,6.9950257
Ormont-Dessous,46.374412,7.0729789
Ormont-Dessus,46.342578,7.1630703
Rennaz,46.375705,6.9190655
Roche (VD),46.36106,6.9309298
Villeneuve (VD),46.396571,6.9248129
Yvorne,46.331712,6.9586852
Apples,46.551673,6.4267658
Aubonne,46.495292,6.3915748
Ballens,46.554274,6.3750843
Berolle,46.558385,6.3373241
Bière,46.537377,6.3337235
Bougy-Villars,46.478759,6.3545367
Féchy,46.478656,6.3747532
Gimel,46.50881,6.3070695
Longirod,46.494383,6.2581282
Marchissy,46.488025,6.2469182
Mollens (VD),46.577232,6.3634849
Montherod,46.498582,6.3660069
Pizy,46.492786,6.3530011
Saint-George,46.513832,6.2602719
Saint-Livres,46.508926,6.3865062
Saint-Oyens,46.498029,6.3063994
Saubraz,46.514561,6.3302084
Avenches,46.879575,7.040941
Bellerive (VD),46.923768,7.0231892
Chabrey,46.926433,6.9812292
Constantine,46.918193,7.0115066
Cudrefin,46.956036,7.0183078
Donatyre,46.876474,7.0576639
Faoug,46.905792,7.0740011
Montmagny,46.926553,7.0105362
Mur (VD),46.944204,7.0603683
Oleyres,46.85348,7.0384206
Vallamand,46.929975,7.0400809
Villars-le-Grand,46.905573,6.9902145
Bettens,46.62759,6.5770883
Bournens,46.604167,6.5633012
Boussens,46.60241,6.5845617
La Chaux (Cossonay),46.61604,6.472555
Chavannes-le-Veyron,46.60645,6.4509017
Chevilly,46.642766,6.4771672
Cossonay,46.61382,6.508938
Cottens (VD),46.571881,6.4547941
Cuarnens,46.624808,6.4382631
Daillens,46.62029,6.5487115
Dizy,46.634887,6.4949896
Eclépens,46.651501,6.5285061
Ferreyres,46.657779,6.4860425
Gollion,46.585234,6.5088361
Grancy,46.591522,6.4649462
L'Isle,46.618758,6.411704
Lussery-Villars,46.630996,6.5251994
Mauraz,46.60541,6.4227461
Mex (VD),46.578436,6.5538256
Moiry,46.648577,6.4552338
Mont-la-Ville,46.645546,6.4077926
Montricher,46.600176,6.375822
Orny,46.667626,6.5256309
Pampigny,46.580651,6.4284521
Penthalaz,46.611326,6.5252453
Penthaz,46.597822,6.540398
Pompaples,46.666644,6.5106833
La Sarraz,46.659058,6.5124448
Senarclens,46.600469,6.4868169
Sévery,46.575845,6.4388219
Sullens,46.593137,6.5661454
Vufflens-la-Ville,46.578373,6.5386727
Assens,46.612787,6.6225936
Bercher,46.692028,6.7089748
Bioley-Orjulaz,46.621136,6.5984553
Bottens,46.616909,6.6607269
Bretigny-sur-Morrens,46.596563,6.640643
Cugy (VD),46.584295,6.6404485
Dommartin,46.649146,6.7020257
Echallens,46.638116,6.6346951
Eclagnens,46.649437,6.5944397
Essertines-sur-Yverdon,46.715224,6.6383585
Etagnières,46.600138,6.6134167
Fey,46.675524,6.6827085
Froideville,46.601243,6.6816355
Goumoens-la-Ville,46.658187,6.6048232
Goumoens-le-Jux,46.669818,6.5887331
Malapalud,46.621184,6.6411466
Morrens (VD),46.59048,6.6267885
Naz,46.59141,9.764147
Oulens-sous-Echallens,46.643333,6.5781518
Pailly,46.701319,6.6745
Penthéréaz,46.681885,6.6035686
Poliez-le-Grand,46.637758,6.663604
Poliez-Pittet,46.62776,6.6826495
Rueyres,46.693792,6.6926541
Saint-Barthélemy (VD),46.635566,6.6001447
Sugnens,46.654973,6.6718853
Villars-le-Terroir,46.656936,6.6387429
Villars-Tiercelin,46.625371,6.7045253
Vuarrens,46.686326,6.6475677
Bonvillars,46.837574,6.6706023
Bullet,46.830931,6.5546431
Champagne,46.830261,6.6580976
Concise,46.851124,6.7205199
Corcelles-près-Concise,46.84807,6.7079314
Fiez,46.828074,6.6240029
Fontaines-sur-Grandson,46.835376,6.6193942
Fontanezier,46.853788,6.6533076
Giez,46.811763,6.6177511
Grandevent,46.8388,6.6065632
Grandson,46.808631,6.6417532
Mauborget,46.855871,6.6146584
Mutrux,46.882521,6.7261849
Novalles,46.828454,6.5956886
Onnens (VD),46.839115,6.6884927
Provence,46.891464,6.7270271
Romairon,46.849861,6.639397
Sainte-Croix,46.822522,6.5009286
Vaugondry,46.848176,6.6367738
Villars-Burquin,46.860223,6.6292047
Belmont-sur-Lausanne,46.520073,6.6800519
Cheseaux-sur-Lausanne,46.585432,6.6061393
Crissier,46.553866,6.5772501
Epalinges,46.547327,6.6726245
Jouxtens-Mézery,46.553268,6.5980688
Lausanne,46.521827,6.6327025
Le Mont-sur-Lausanne,46.5531,6.6354534
Paudex,46.505689,6.6732336
Prilly,46.534566,6.6055827
Pully,46.509802,6.6617476
Renens (VD),46.534909,6.5928442
Romanel-sur-Lausanne,46.562117,6.6055577
Chexbres,46.48095,6.7803021
Cully,46.488325,6.7296804
Epesses,46.491326,6.7475919
Forel (Lavaux),46.541951,6.77037
Grandvaux,46.494197,6.7161306
Lutry,46.503277,6.6867879
Puidoux,46.500811,6.7823914
Riex,46.493516,6.7358129
Rivaz,46.476277,6.7786403
Saint-Saphorin (Lavaux),46.473182,6.7959554
Savigny,46.538425,6.7316194
Villette (Lavaux),46.506132,6.712868
Aclens,46.568029,6.51076
Bremblens,46.546168,6.51777
Buchillon,46.470247,6.4230108
Bussigny-près-Lausanne,46.55125,6.553745
Bussy-Chardonney,46.529111,6.4419818
Chavannes-près-Renens,46.528521,6.5726698
Chigny,46.520186,6.4773257
Clarmont,46.547432,6.4501584
Colombier (VD),46.556503,6.4719318
Denens,46.518323,6.4564786
Denges,46.524168,6.5402546
Echandens,46.534381,6.5410474
Echichens,46.526554,6.4978862
Ecublens (VD),46.5258,6.5621137
Etoy,46.486091,6.4193113
Lavigny,46.501184,6.4045912
Lonay,46.526568,6.5206068
Lully (VD),46.505259,6.4647302
Lussy-sur-Morges,46.502863,6.4508849
Monnaz,46.528663,6.4794327
Morges,46.509327,6.498317
Préverenges,46.518384,6.5267369
Reverolle,46.541744,6.4402753
Romanel-sur-Morges,46.556429,6.5101067
Saint-Prex,46.480906,6.4586004
Saint-Saphorin-sur-Morges,46.546531,6.4867816
Saint-Sulpice (VD),46.510083,6.5580607
Tolochenaz,46.5047,6.4734539
Vaux-sur-Morges,46.535398,6.463827
Villars-Sainte-Croix,46.567588,6.5616074
Villars-sous-Yens,46.510244,6.4286538
Vufflens-le-Château,46.52646,6.4690909
Vullierens,46.57304,6.4816261
Yens,46.518837,6.4180806
Boulens,46.681059,6.7192139
Brenles,46.671219,6.8538119
Bussy-sur-Moudon,46.685828,6.8108726
Chapelle-sur-Moudon,46.669128,6.736023
Chavannes-sur-Moudon,46.657167,6.8092169
Chesalles-sur-Moudon,46.67528,6.8330547
Correvon,46.715814,6.7373666
Cremin,46.725922,6.8432266
Curtilles,46.700552,6.8486858
Denezy,46.721654,6.7845389
Dompierre (VD),46.70819,6.8835369
Forel-sur-Lucens,46.728258,6.8222876
Hermenches,46.641906,6.7602141
Lovatens,46.691805,6.8641889
Lucens,46.708447,6.8389766
Martherenges,46.660937,6.7532478
Montaubion-Chardonney,46.645692,6.7142576
Moudon,46.668066,6.8003478
Neyruz-sur-Moudon,46.697309,6.7872879
Ogens,46.711166,6.7227737
Oulens-sur-Lucens,46.70412,6.8080342
Peyres-Possens,46.662599,6.707191
Prévonloup,46.699867,6.8820157
Rossenges,46.652036,6.7765557
Saint-Cierges,46.690329,6.7349556
Sarzens,46.682036,6.8496603
Sottens,46.655482,6.7421506
Syens,46.645658,6.7782652
Thierrens,46.703426,6.7550299
Villars-le-Comte,46.710645,6.7990287
Villars-Mendraz,46.646228,6.7293282
Vucherens,46.624684,6.7769649
Arnex-sur-Nyon,46.375991,6.1913819
Arzier,46.459981,6.208069
Bassins,46.464053,6.2316394
Begnins,46.44113,6.2492689
Bogis-Bossey,46.351573,6.1648147
Borex,46.379071,6.1777222
Chavannes-de-Bogis,46.344642,6.1625796
Chavannes-des-Bois,46.314714,6.132561
Chéserex,46.399763,6.1737875
Coinsins,46.424599,6.2359205
Commugny,46.318231,6.1757684
Coppet,46.316446,6.1927752
Crans-près-Céligny,46.357928,6.2058302
Crassier,46.374331,6.164548
Duillier,46.409731,6.235451
Eysins,46.380722,6.2042596
Founex,46.333817,6.1943733
Genolier,46.435025,6.2178235
Gingins,46.409451,6.1779167
Givrins,46.428978,6.2017676
Gland,46.423943,6.2655115
Grens,46.393721,6.1916774
Mies,46.306032,6.1723029
Nyon,46.382058,6.2402791
Prangins,46.394798,6.2487871
La Rippe,46.381496,6.1516031
Saint-Cergue,46.446097,6.158111
Signy-Avenex,46.390723,6.2018023
Tannay,46.30896,6.1757001
Trélex,46.414967,6.2048987
Le Vaud,46.477489,6.2355007
Vich,46.429419,6.2505497
L'Abergement,46.753789,6.4886777
Agiez,46.719902,6.508106
Arnex-sur-Orbe,46.694159,6.5187517
Ballaigues,46.730528,6.4132441
Baulmes,46.790398,6.5212523
Bavois,46.685308,6.5651634
Bofflens,46.704557,6.4989467
Bretonnières,46.712238,6.4734908
Chavornay,46.706261,6.5693871
Les Clées,46.732066,6.4626883
Corcelles-sur-Chavornay,46.703634,6.6011825
Croy,46.694568,6.4771721
Juriens,46.691143,6.4500103
Lignerolle,46.740788,6.4559997
Montcherand,46.73308,6.5102099
Orbe,46.724144,6.5317943
La Praz,46.667526,6.4272029
Premier,46.704798,6.444282
Rances,46.760279,6.5300272
Romainmôtier-Envy,46.693258,6.4611912
Sergey,46.750542,6.4995735
Valeyres-sous-Rances,46.752828,6.5249548
Vallorbe,46.712015,6.3792318
Vaulion,46.688355,6.3894066
Vuiteboeuf,46.807388,6.5493754
Bussigny-sur-Oron,46.568425,6.8625441
Carrouge (VD),46.604471,6.7755538
Châtillens,46.570505,6.8154603
Chesalles-sur-Oron,46.573846,6.8548867
Corcelles-le-Jorat,46.605874,6.7407986
Les Cullayes,46.573063,6.7537317
Ecoteaux,46.545506,6.8632391
Essertes,46.565763,6.7889079
Ferlens (VD),46.588858,6.7868326
Maracon,46.550023,6.8727444
Mézières (VD),46.595784,6.7705874
Montpreveyres,46.581339,6.740799
Oron-la-Ville,46.570924,6.8274668
Oron-le-Châtel,46.57277,6.8397081
Palézieux,46.55502,6.8304613
Peney-le-Jorat,46.629339,6.7288714
Ropraz,46.615322,6.7515592
Servion,46.576795,6.7845039
Les Tavernes,46.552926,6.8099194
Les Thioleyres,46.538485,6.8152476
Vuibroye,46.571742,6.8052936
Vulliens,46.621286,6.7927903
Cerniaz (VD),46.727148,6.896079
Champtauroz,46.760598,6.789151
Chevroux,46.889844,6.9053929
Combremont-le-Grand,46.761985,6.8180582
Combremont-le-Petit,46.749316,6.8087604
Corcelles-près-Payerne,46.833185,6.9614432
Grandcour,46.871875,6.928747
Granges-près-Marnand,46.764422,6.8864746
Henniez,46.742255,6.8834048
Marnand,46.756488,6.8999296
Missy,46.879875,6.9698165
Payerne,46.820805,6.939126
Rossens (VD),46.735469,6.921761
Sassel,46.776619,6.857103
Sédeilles,46.748253,6.9344024
Seigneux,46.727388,6.8786301
Trey,46.769255,6.9251725
Treytorrens (Payerne),46.77312,6.8003881
Villars-Bramard,46.719178,6.8989641
Villarzel,46.74785,6.9118617
Château-d'Oex,46.473841,7.1303012
Rossinière,46.467518,7.083061
Rougemont,46.489999,7.2106992
Allaman,46.470778,6.396174
Bursinel,46.438423,6.3053467
Bursins,46.451554,6.2906369
Burtigny,46.46872,6.2567707
Dully,46.430462,6.2957383
Essertines-sur-Rolle,46.492489,6.3170166
Gilly,46.457511,6.2969883
Luins,46.442819,6.271154
Mont-sur-Rolle,46.470957,6.3365929
Perroy,46.468147,6.3642905
Rolle,46.460156,6.3380469
Tartegnin,46.466655,6.3156804
Vinzel,46.447607,6.2793859
L'Abbaye,46.649272,6.3186169
Le Chenit,46.604664,6.2337695
Le Lieu,46.646219,6.280313
Blonay,46.46504,6.8951981
Chardonne,46.47709,6.8271259
Corseaux,46.472275,6.8320071
Corsier-sur-Vevey,46.470578,6.8436858
Jongny,46.478504,6.8414194
Montreux,46.431083,6.9129921
Saint-Légier-La Chiésaz,46.472278,6.8759701
La Tour-de-Peilz,46.453752,6.8569063
Vevey,46.460298,6.8418655
Veytaux,46.421573,6.9275648
Belmont-sur-Yverdon,46.74548,6.6241604
Bioley-Magnoux,46.725561,6.7108156
Chamblon,46.777276,6.6044112
Champvent,46.782805,6.5726094
Chanéaz,46.729566,6.7417615
Chavannes-le-Chêne,46.776881,6.7780279
Chêne-Pâquier,46.771165,6.7684976
Cheseaux-Noréaz,46.782033,6.6718258
Cronay,46.757184,6.6966405
Cuarny,46.770037,6.6884422
Démoret,46.746693,6.7570249
Donneloye,46.744325,6.7155281
Ependes (VD),46.743158,6.6083432
Essert-Pittet,46.727652,6.5821566
Essert-sous-Champvent,46.794033,6.5840932
Gossens,46.738321,6.699106
Gressy,46.749093,6.63595
Mathod,46.766791,6.5647296
Mézery-près-Donneloye,46.748427,6.7262743
Molondin,46.760676,6.7492454
Montagny-près-Yverdon,46.791458,6.6117904
Oppens,46.714312,6.6923429
Orges,46.808234,6.5875293
Orzens,46.723922,6.6830459
Pomy,46.760958,6.6663747
Prahins,46.73471,6.7398561
Rovray,46.784944,6.7644164
Suchy,46.723233,6.5994077
Suscévaz,46.764236,6.5780348
Treycovagnes,46.773878,6.6092758
Ursins,46.734894,6.668296
Valeyres-sous-Montagny,46.798369,6.6105655
Valeyres-sous-Ursins,46.74582,6.655254
Villars-Epeney,46.781728,6.6969935
Villars-sous-Champvent,46.786139,6.583353
Vugelles-La Mothe,46.82394,6.5757152
Yverdon-les-Bains,46.778571,6.6409158
Yvonand,46.798316,6.7445021
Birgisch,46.317063,7.9561748
Brig-Glis,46.288732,7.9753084
Eggerberg,46.306493,7.8780148
Mund,46.315287,7.9411034
Naters,46.324266,7.9884511
Ried-Brig,46.315027,8.0166829
Simplon,46.195588,8.0563136
Termen,46.328397,8.0227013
Zwischbergen,46.16218,8.1164859
Ardon,46.210498,7.2576107
Chamoson,46.201334,7.2232538
Conthey,46.188017,7.2903423
Nendaz,46.186708,7.3051008
Vétroz,46.225341,7.2812893
Bagnes,46.009981,7.3070055
Bourg-Saint-Pierre,45.948925,7.2088271
Liddes,45.991701,7.1865245
Orsières,46.030068,7.1453627
Sembrancher,46.078483,7.1517153
Vollèges,46.088005,7.1697258
Bellwald,46.423702,8.1599477
Binn,46.365599,8.1883972
Blitzingen,46.443748,8.2023646
Ernen,46.398882,8.1460083
Fiesch,46.402946,8.1341501
Fieschertal,46.42457,8.1427862
Lax,46.388876,8.1195682
Niederwald,46.435923,8.1898458
Obergesteln,46.513782,8.3248669
Oberwald,46.532857,8.3520502
Ulrichen,46.506561,8.3049713
Grafschaft,47.494869,8.5023844
Münster-Geschinen,46.491185,8.2674616
Reckingen-Gluringen,46.468235,8.2438359
Les Agettes,46.208182,7.3752716
Ayent,46.319024,7.4166423
Evolène,46.112905,7.4958022
Hérémence,46.180741,7.4057866
Mase,46.194691,7.4313991
Nax,46.22677,7.4250269
Saint-Martin (VS),46.153547,7.4688063
Vernamiège,46.210966,7.4313684
Vex,46.211382,7.3983622
Agarn,46.296708,7.6652777
Albinen,46.340644,7.6337277
Bratsch,46.320647,7.7072693
Ergisch,46.292777,7.7148033
Erschmatt,46.321813,7.6923472
Gampel,46.315351,7.7430022
Inden,46.344081,7.6169972
Leuk,46.277756,7.6680202
Leukerbad,46.379316,7.6267416
Oberems,46.281694,7.6957835
Salgesch,46.311614,7.5699409
Turtmann,46.301121,7.7017415
Unterems,46.292277,7.6962172
Varen,46.318663,7.6078029
Guttet-Feschel,46.350709,7.6744165
Bovernier,46.079997,7.0868391
Charrat,46.122063,7.1347402
Fully,46.139001,7.1146544
Isérables,46.162139,7.2445214
Leytron,46.185954,7.2068108
Martigny,46.103115,7.0727354
Martigny-Combe,46.067089,7.0370217
Riddes,46.171897,7.2227718
Saillon,46.171564,7.1849043
Saxon,46.145287,7.1807405
Trient,46.055949,6.9953742
Champéry,46.175679,6.8687665
Collombey-Muraz,46.267673,6.94607
Monthey,46.252844,6.9478263
Port-Valais,46.373589,6.8624056
Saint-Gingolph,46.387041,6.8250394
Troistorrents,46.228581,6.9161978
Val-d'Illiez,46.204027,6.8927881
Vionnaz,46.311223,6.8999588
Vouvry,46.337245,6.8887175
Betten,46.376429,8.069257
Bister,46.362041,8.0668223
Bitsch,46.337402,8.0136014
Filet,46.359262,8.0498317
Grengiols,46.372964,8.092535
Martisberg,46.385666,8.1005629
Mörel,46.355116,8.0443575
Riederalp,46.378202,8.0334815
Ausserberg,46.315309,7.8525781
Blatten,46.420581,7.8192935
Bürchen,46.280568,7.8163191
Eischoll,46.293619,7.7812181
Ferden,46.394285,7.7591799
Hohtenn,46.318917,7.7562877
Kippel,46.399194,7.7717164
Niedergesteln,46.313393,7.7818042
Raron,46.309934,7.799589
Steg,47.351411,8.9351412
Unterbäch,46.260929,7.7798653
Wiler (Lötschen),46.403995,7.7836104
Collonges,46.171491,7.0347121
Dorénaz,46.147902,7.0435276
Evionnaz,46.179446,7.0225695
Finhaut,46.082805,6.9765238
Massongex,46.242771,6.9879674
Mex (VS),46.185019,6.9999526
Saint-Maurice,46.219769,7.0045193
Salvan,46.121983,7.0208326
Vernayaz,46.136542,7.0393423
Vérossaz,46.212888,6.98412
Ayer,46.178853,7.6033089
Chalais,46.265438,7.5085408
Chandolin,46.252583,7.5986698
Chermignon,46.28893,7.4750848
Chippis,46.280541,7.5406261
Grimentz,46.180295,7.573834
Grône,46.251007,7.4582384
Icogne,46.29078,7.4391182
Lens,46.279895,7.4461626
Miège,46.311177,7.5473724
Mollens (VS),46.315382,7.5201068
Montana,46.312554,7.4823938
Randogne,46.311602,7.5016541
Saint-Jean,46.071834,7.1479814
Saint-Léonard,46.254678,7.420378
Saint-Luc,46.220559,7.596488
Sierre,46.292252,7.5323195
Venthône,46.306816,7.5291039
Veyras,46.303157,7.5366727
Vissoie,46.215317,7.5853597
Arbaz,46.273328,7.3834555
Grimisuat,46.260674,7.385846
Salins,46.211068,7.35707
Savièse,46.253535,7.3477598
Sion,46.231175,7.3588795
Veysonnaz,46.195508,7.3363267
Baltschieder,46.307908,7.8646512
Eisten,46.198846,7.8949076
Embd,46.215848,7.8283567
Grächen,46.196018,7.8421612
Lalden,46.300193,7.900266
Randa,46.100279,7.782412
Saas Almagell,46.093891,7.9582333
Saas Balen,46.154021,7.9281921
Saas Fee,46.107342,7.9247055
Saas Grund,46.127844,7.9370051
St. Niklaus,46.177002,7.802516
Stalden (VS),46.232596,7.8704203
Staldenried,46.229616,7.8833886
Täsch,46.067675,7.7770173
Törbel,46.23852,7.851508
Visp,46.291311,7.8811918
Visperterminen,46.258989,7.9030118
Zeneggen,46.273178,7.8656201
Zermatt,46.021208,7.749254
Auvernier,46.976104,6.8741475
Bevaix,46.929721,6.8105995
Bôle,46.968365,6.8381666
Boudry,46.948746,6.8358712
Brot-Dessous,46.961779,6.7645336
Colombier (NE),46.969872,6.8587597
Corcelles-Cormondrèche,46.985215,6.8688571
Cortaillod,46.943232,6.8458944
Fresens,46.888314,6.747402
Gorgier,46.903534,6.7805424
Montalchez,46.89757,6.7445526
Peseux,46.988693,6.8906893
Rochefort,46.977863,6.8084757
Saint-Aubin-Sauges,46.894585,6.7737479
Vaumarcus,46.877226,6.7525002
La Chaux-de-Fonds,47.103132,6.8325778
Les Planchettes,47.106713,6.7707244
La Sagne,47.038552,6.7984212
Les Brenets,47.067859,6.705986
La Brévine,46.980193,6.6070172
Brot-Plamboz,46.972471,6.7408701
Le Cerneux-Péquignot,47.016619,6.6652883
La Chaux-du-Milieu,47.013538,6.7030562
Le Locle,47.055591,6.745454
Les Ponts-de-Martel,46.999085,6.7317108
Cornaux,47.038331,7.0188056
Cressier (NE),47.050839,7.0357396
Enges,47.056267,7.0133883
Hauterive (NE),47.01233,6.97615
Le Landeron,47.055431,7.0702155
Lignières,47.082839,7.0661591
Marin-Epagnier,47.009124,6.9999328
Neuchâtel,46.989583,6.9292641
Saint-Blaise,47.013084,6.9879483
Thielle-Wavre,47.018393,7.0242286
Boudevilliers,47.031077,6.8699306
Cernier,47.076887,6.8938129
Chézard-Saint-Martin,47.064163,6.9212493
Coffrane,47.010277,6.8606541
Dombresson,47.071132,6.9565125
Engollon,47.042672,6.9235264
Fenin-Vilars-Saules,47.028737,6.9275573
Fontainemelon,47.059157,6.8888393
Fontaines (NE),47.041278,6.9008006
Les Geneveys-sur-Coffrane,47.014688,6.8524243
Les Hauts-Geneveys,47.052915,6.856181
Montmollin,46.994619,6.844766
Le Pâquier (NE),47.098896,6.9866517
Savagnier,47.050346,6.956586
Valangin,47.015851,6.9072693
Villiers,47.09479,7.0046277
Les Bayards,46.915601,6.5155776
Boveresse,46.916623,6.5972031
Buttes,46.88746,6.5513541
La Côte-aux-Fées,46.866666,6.4886238
Couvet,46.926164,6.6343244
Fleurier,46.904275,6.58004
Môtiers (NE),46.910451,6.6107557
Noiraigue,46.954554,6.7249296
Saint-Sulpice (NE),46.51047,6.55897
Travers,46.941331,6.6763617
Les Verrières,46.904458,6.4820688
Aire-la-Ville,46.190592,6.0428776
Anières,46.276099,6.2237615
Avully,46.169546,6.0013516
Avusy,46.151678,5.9947436
Bardonnex,46.149914,6.1051191
Bellevue,46.255,6.154317
Bernex,46.174658,6.0721811
Carouge (GE),46.184669,6.1396839
Cartigny,46.17367,6.021701
Céligny,46.350584,6.1949435
Chancy,46.149484,5.9726439
Chêne-Bougeries,46.196364,6.1854072
Chêne-Bourg,46.194239,6.1934779
Choulex,46.223186,6.2242767
Collex-Bossy,46.270213,6.1225354
Collonge-Bellerive,46.253742,6.2045928
Cologny,46.216396,6.1817613
Confignon,46.174249,6.0851643
Corsier (GE),46.262675,6.2250187
Dardagny,46.19471,5.9948422
Genève,46.201756,6.1466014
Genthod,46.264418,6.1570636
Le Grand-Saconnex,46.236332,6.126532
Gy,46.252665,6.2582938
Hermance,46.302188,6.2437346
Jussy,46.236763,6.269155
Laconnex,46.155596,6.0360307
Lancy,46.183916,6.1224047
Meinier,46.246719,6.2333553
Meyrin,46.228323,6.0712016
Onex,46.183784,6.1007481
Perly-Certoux,46.157322,6.0917899
Plan-les-Ouates,46.168311,6.117887
Pregny-Chambésy,46.24344,6.1465109
Presinge,46.219155,6.25636
Puplinge,46.210639,6.231707
Russin,46.187629,6.0130297
Satigny,46.21577,6.0330885
Soral,46.144389,6.0437516
Thônex,46.18843,6.1983858
Troinex,46.161654,6.147819
Vandoeuvres,46.221408,6.2024623
Vernier,46.213184,6.0815756
Versoix,46.277306,6.168962
Veyrier,46.166816,6.185681
Bassecourt,47.338037,7.2399891
Boécourt,47.348948,7.2140576
Bourrignon,47.39666,7.245026
Châtillon (JU),47.327531,7.3437721
Corban,47.346462,7.4761309
Courchapoix,47.348988,7.4561999
Courfaivre,47.330769,7.2799298
Courrendlin,47.339299,7.3735698
Courroux,47.359922,7.3782917
Courtételle,47.341869,7.3162671
Delémont,47.361588,7.354445
Develier,47.356727,7.2910721
Ederswiler,47.425687,7.334709
Glovelier,47.323818,7.1856531
Mervelier,47.343821,7.4984971
Mettembert,47.398157,7.3220141
Montsevelier,47.359888,7.5106944
Movelier,47.409356,7.3180391
Pleigne,47.407496,7.292424
Rebeuvelier,47.32443,7.4151819
Rossemaison,47.345778,7.3431762
Saulcy,47.301613,7.1540249
Soulce,47.29869,7.289723
Soyhières,47.390073,7.3696855
Undervelier,47.301548,7.2163193
Vermes,47.319482,7.4948211
Vicques,47.35376,7.421113
Vellerat,47.319121,7.3710192
Le Bémont (JU),47.263702,7.0135465
Les Bois,47.176312,6.9049147
Les Breuleux,47.211567,7.0054836
La Chaux-des-Breuleux,47.222708,7.0275091
Les Enfers,47.288575,7.047358
Epauvillers,47.335246,7.1160018
Epiquerez,47.328536,7.05653
Les Genevez (JU),47.25678,7.1293599
Goumois,47.261482,6.9520862
Lajoux (JU),47.279011,7.1359592
Montfaucon,47.282219,7.0512919
Montfavergier,47.309477,7.0896916
Muriaux,47.246007,6.9794762
Le Noirmont,46.484177,6.1157508
Le Peuchapatte,47.19701,6.9652385
Les Pommerats,47.271227,6.9855346
Saignelégier,47.2558,6.9963585
Saint-Brais,47.305302,7.1125855
Soubey,47.308243,7.0486468
Alle,47.42581,7.1291258
Asuel,47.397786,7.2093194
Beurnevésin,47.49249,7.1363556
Boncourt,47.497936,7.0127433
Bonfol,47.476701,7.1523017
Bressaucourt,47.384907,7.0382993
Buix,47.480683,7.0301046
Bure,47.442266,7.0059901
Charmoille,47.423489,7.2072384
Chevenez,47.392003,6.9998562
Coeuve,47.454155,7.0975919
Cornol,47.407368,7.1612963
Courchavon,47.440771,7.0570937
Courgenay,47.404543,7.1242961
Courtedoux,47.41021,7.0417935
Courtemaîche,47.458606,7.0467882
Damphreux,47.475755,7.1023282
Damvant,47.372186,6.8971653
Fahy,47.418456,6.9505047
Fontenais,47.40348,7.080589
Fregiécourt,47.412257,7.1981669
Grandfontaine,47.391336,6.9395757
Lugnez,47.482912,7.0981378
Miécourt,47.427092,7.1747627
Montenol,47.350897,7.1488942
Montignez,47.486976,7.0582598
Montmelon,47.354531,7.1817468
Ocourt,47.351389,7.0775968
Pleujouse,47.412219,7.2119036
Porrentruy,47.41713,7.0761342
Réclère,47.375634,6.9219953
Roche-d'Or,47.366881,6.9540107
Rocourt,47.390504,6.9569559
Saint-Ursanne,47.364603,7.1539488
Seleute,47.366362,7.1132195
Vendlincourt,47.451242,7.1485023
Sils im Engadin, 46.433333, 9.766667
